~VERSION INFORMATION
VERS.           2.0   :CWLS Log ASCII Standard - VERSION 2.0
WRAP.           NO    :One Line per depth step
PROD.  Schlumberger   :LAS Producer
PROG.  DLIS to ASCII 11C0-305                          :LAS Program name and version
CREA.        2004/09/30 14:49                          :LAS Creation date {YYYY/MM/DD hh:mm}
SOURCE.     DLL_SONIC_LDL_CNL_035PUP.DLIS              :DLIS File Name
FILE-ID.     DLL_SONIC_LDL_CNL_035PUP                  :File Identification Number
#--------------------------------------------------
~WELL INFORMATION
#MNEM.UNIT      DATA             DESCRIPTION
#---- ------ --------------   -----------------------------
STRT .M      1817.6748       :START DEPTH     
STOP .M        25.7556       :STOP DEPTH     
STEP .M        -0.1524       :STEP     
NULL .          -999.25      :NULL VALUE
COMP .        GNPOC                                    :COMPANY
WELL .        Haraz-2                                  :WELL
FLD  .        Block 4                                  :FIELD
LOC  .                                                 :LOCATION
CNTY .        Roll'n 15                                :COUNTY
STAT .        Sudan                                    :STATE
CTRY .        Sudan                                    :COUNTRY
API  .                                                 :API NUMBER
UWI  .                                                 :UNIQUE WELL ID
DATE .        29-Sep-2004                              :LOG DATE {DD-MMM-YYYY}
SRVC .        Schlumberger                             :SERVICE COMPANY
LATI .DEG     10 31' 53.73" N                          :LATITUDE
LONG .DEG     28 05' 10.61" E                          :LONGITUDE
GDAT .                                                 :GeoDetic Datum
RMS  .OHM.M   0.0723                                   :MUD RESISTIVITY @ 83.0 DEGF
RMFS .OHM.M   0.0512                                   :MUD FILTRATE RESISTIVITY @ 83.6 DEGF
RMCS .OHM.M   0.1592                                   :MUD CAKE RESISTIVIT @ 82.90 DEGF
BSAL .PPM     35500                                    :BORE HOLE SALINITY
MRT  .DEGF    168                                      :MAXIMUM RECORDED TEMPERATURE
HOLV .M3      54.73                                    :HOLE VOLUME
CEMV .M3      31.90                                    :CEMENT VOLUME
#-----------------------------------------------------------------------------
~PARAMETER INFORMATION
#MNEM.UNIT    VALUE                      DESCRIPTION
#---- -----   --------------------       ------------------------
RUN  .          1                        :RUN NUMBER
PDAT .        MSL                        :Permanent Datum
EPD  .M           0.000000               :Elevation of Permanent Datum above Mean Sea Level
EPD  .M           0.000000               :Elevation of tool zero above Mean Sea Level
LMF  .          KB                       :Logging Measured From (Name of Logging Elevation Reference)
APD  .M         422.820007               :Elevation of Depth Reference (LMF) above Permanent Datum
#-----------------------------------------------------------------------------
~CURVE INFORMATION
#MNEM.UNIT   API CODE                                  DESCRIPTION
#---- -----  --------                                  -----------------------
DEPT .M                                                :DEPTH (BOREHOLE) {F10.4}
BS   .IN                                               :Bit Size {F13.4}
CALI .IN                                               :Caliper {F13.4}
DRHO .G/C3                                             :Bulk Density Correction {F13.4}
DT   .US/F                                             :Delta-T {F13.4}
GR   .GAPI                                             :Gamma Ray {F13.4}
LLD  .OHMM                                             :DEEP RESISTIVITY {F13.4}
LLS  .OHMM                                             :SHALLOW RESISTIVITY {F13.4}
MSFL .OHMM                                             :MSFL RESISTIVITY {F13.4}
NPHI .V/V                                              :Thermal Neutron Porosity (Ratio Method) {F13.4}
PEF  .                                                 :Photoelectric Factor {F13.4}
RHOB .G/C3                                             :Bulk Density {F13.4}
SP   .MV                                               :SP Shifted {F13.4}
TENS .LBF                                              :Cable Tension {F13.4}
#-----------------------------------------------------------------------------
# 
#     DEPT        BS           CALI         DRHO         DT           GR           LLD          LLS          MSFL         NPHI         PEF          RHOB         SP           TENS
#
~A  
# ...
 1104.4428       9.8750       9.6954      -0.0088     109.2000      55.5937      22.0744       5.4978       0.4674       0.2616       2.2046       2.1655     -16.6875   32767.0000
 1104.2904       9.8750       9.6966      -0.0078     108.8000      58.9038      22.2047       5.6285       0.5583       0.2474       2.2838       2.1674     -16.7500   32767.0000
 1104.1380       9.8750       9.6754      -0.0086     107.7000      57.0954      23.1740       5.8749       0.5522       0.2415       2.3672       2.1754     -16.8750   32767.0000
 1103.9856       9.8750       9.6437      -0.0053     106.5000      54.6099      26.1832       6.5568       0.6586       0.2253       2.5016       2.1828     -16.5625   32767.0000
 1103.8332       9.8750       9.6840      -0.0037     107.8000      52.5504      34.5889       8.5801       0.6441       0.2201       2.5305       2.1930     -16.5000   32767.0000
 1103.6808       9.8750       9.7054      -0.0022     107.4000      49.5924      41.2577       9.9503       0.6065       0.2260       2.4168       2.1938     -16.5000   32767.0000
 1103.5284       9.8750       9.7330      -0.0013     107.7000      49.0275      42.3026       9.9881       0.6234       0.2419       2.4691       2.1947     -17.0000   32767.0000
 1103.3760       9.8750       9.7948       0.0018     107.9000      49.2536      40.8611       9.4025       0.4103       0.2576       2.7727       2.1940     -16.7500   32767.0000
 1103.2236       9.8750       9.8166       0.0031     107.6000      52.3246      38.9394       8.8762       0.3731       0.2735       3.2833       2.1928     -16.6250   32767.0000
 1103.0712       9.8750       9.8578       0.0098     107.6000      53.3414      38.9221       8.7194       0.2465       0.2707       3.9116       2.1887     -16.9375   32767.0000
 1102.9188       9.8750       9.8404       0.0110     108.6000      51.0738      42.6438       9.3742       0.3107       0.2679       3.6252       2.1807     -16.9375   32767.0000
 1102.7664       9.8750       9.7140       0.0091     110.9000      51.9780      46.9899      10.4508       0.3303       0.2333       3.3525       2.1647     -17.3750   32767.0000
 1102.6140       9.8750       9.7016       0.0062     110.6000      52.3096      48.3568      10.8164       0.3847       0.2281       2.8118       2.1560     -17.0000   32767.0000
 1102.4616       9.8750       9.7321       0.0054     111.8000      54.1329      46.4064      10.4694       0.4148       0.2270       2.5516       2.1531     -16.6250   32767.0000
 1102.3092       9.8750       9.7479      -0.0041     113.2000      53.0152      44.9787      10.1571       0.3490       0.2497       2.3631       2.1483     -17.2500   32767.0000
 1102.1568       9.8750       9.7459      -0.0106     116.6000      54.0472      44.4292       9.7172       0.3391       0.2440       2.3703       2.1482     -17.6250   32767.0000
 1102.0044       9.8750       9.7479      -0.0104     110.6000      53.4818      45.6498       9.9578       0.3353       0.2499       2.4832       2.1506     -17.3125   32767.0000
 1101.8520       9.8750       9.7437      -0.0067     111.2000      53.6882      49.6427      10.9070       0.3565       0.2449       2.6130       2.1582     -17.3750   32767.0000
 1101.6996       9.8750       9.7440      -0.0081     117.5000      53.4621      52.2499      11.3822       0.3731       0.2614       2.7014       2.1579     -17.6875   32767.0000
 1101.5472       9.8750       9.7280      -0.0054     111.9000      56.0751      51.6752      11.1914       0.4448       0.2486       2.6582       2.1680     -17.3750   32767.0000
 1101.3948       9.8750       9.7467       0.0008     110.1000      55.0517      53.4189      11.4299       0.5369       0.2472       2.5667       2.1766     -17.5000   32767.0000
 1101.2424       9.8750       9.7479       0.0017     119.7000      54.3809      55.7634      12.0225       0.3708       0.2506       2.5065       2.1762     -17.4375   32767.0000
 1101.0900       9.8750       9.7479      -0.0037     117.2000      51.0145      57.6928      12.4565       0.3621       0.2542       2.6001       2.1667     -17.9375   32767.0000
 1100.9376       9.8750       9.7391       0.0011     116.2000      52.1581      62.5905      13.3335       0.4147       0.2481       2.5532       2.1783     -17.7500   32767.0000
 1100.7852       9.8750       9.7255       0.0021     116.5000      52.3692      66.1219      14.0004       0.4727       0.2373       2.3837       2.1864     -17.6875   32767.0000
 1100.6328       9.8750       9.7272      -0.0010     111.4000      52.8890      62.8948      12.9927       0.5001       0.2307       2.2223       2.1953     -17.5000   32767.0000
 1100.4804       9.8750       9.7280      -0.0028     114.5000      52.9948      52.6394      10.7521       0.4389       0.2363       2.1441       2.1876     -17.3750   32767.0000
 1100.3280       9.8750       9.7371      -0.0020     113.0000      53.2284      44.9185       9.4090       0.4994       0.2389       2.0977       2.1889     -17.8750   32767.0000
 1100.1756       9.8750       9.7444      -0.0095     114.3000      53.6728      39.7990       8.4973       0.4710       0.2430       2.1491       2.1715     -18.0625   32767.0000
 1100.0232       9.8750       9.7448      -0.0114     115.2000      55.6015      34.3232       7.5351       0.4785       0.2571       2.1506       2.1676     -17.6875   32767.0000
 1099.8708       9.8750       9.7459      -0.0160     113.3000      54.5771      32.3065       7.3182       0.4917       0.2604       2.2911       2.1599     -17.3125   32767.0000
 1099.7184       9.8750       9.7479      -0.0185     116.1000      55.3679      32.1513       7.3878       0.4378       0.2589       2.2881       2.1547     -17.5000   32767.0000
 1099.5660       9.8750       9.7448      -0.0242     116.5000      51.5924      32.3341       7.4142       0.4702       0.2474       2.3413       2.1494     -17.4375   32767.0000
 1099.4136       9.8750       9.7429      -0.0184     114.2000      50.9145      36.6484       8.0883       0.5452       0.2442       2.2279       2.1492     -17.5000   32767.0000
 1099.2612       9.8750       9.7440      -0.0161     113.6000      52.0359      42.3916       8.4938       0.6050       0.2368       2.1812       2.1587     -17.8125   32767.0000
 1099.1088       9.8750       9.7467      -0.0130     113.0000      57.0377      43.0593       8.2377       0.6705       0.2506       2.1384       2.1634     -17.7500   32767.0000
 1098.9564       9.8750       9.7459      -0.0098     113.5000      59.5391      43.1978       7.6317       0.5035       0.2413       2.1488       2.1779     -17.5000   32767.0000
 1098.8040       9.8750       9.7429      -0.0051     111.2000      58.3127      41.4290       6.8965       0.4334       0.2428       2.1697       2.1847     -17.6250   32767.0000
 1098.6516       9.8750       9.7464      -0.0044     109.5000      57.4174      42.1625       6.7067       0.4332       0.2330       2.1620       2.1962     -18.0000   32767.0000
 1098.4992       9.8750       9.7448      -0.0061     106.3000      57.0912      45.2804       7.1288       0.4434       0.2265       2.1711       2.1964     -18.1250   32767.0000
 1098.3468       9.8750       9.7459      -0.0077     105.3000      56.8573      47.4200       7.4887       0.5053       0.2231       2.1516       2.1893     -18.7500   32767.0000
 1098.1944       9.8750       9.7429      -0.0072     107.2000      58.4478      52.9488       8.6281       0.5413       0.2117       2.1784       2.1682     -19.0000   32767.0000
 1098.0420       9.8750       9.7513      -0.0070     108.1000      55.9336      59.2610      10.1094       0.5518       0.2221       2.1421       2.1665     -19.4375   32767.0000
 1097.8896       9.8750       9.7517      -0.0105     108.4000      54.2461      66.6890      12.0017       0.6657       0.2200       2.1249       2.1675     -19.5625   32767.0000
 1097.7372       9.8750       9.7536      -0.0107     107.7000      50.6219      74.2580      14.2103       0.7607       0.2137       2.0725       2.1843     -20.1875   32767.0000
