~VERSION INFORMATION
VERS.           2.0   :CWLS Log ASCII Standard - VERSION 2.0
WRAP.           NO    :One Line per depth step
PROD.  Schlumberger   :LAS Producer
PROG.  DLIS to ASCII 11C0-305                          :LAS Program name and version
CREA.        2004/09/30 14:49                          :LAS Creation date {YYYY/MM/DD hh:mm}
SOURCE.     DLL_SONIC_LDL_CNL_035PUP.DLIS              :DLIS File Name
FILE-ID.     DLL_SONIC_LDL_CNL_035PUP                  :File Identification Number
#--------------------------------------------------
~WELL INFORMATION
#MNEM.UNIT      DATA             DESCRIPTION
#---- ------ --------------   -----------------------------
STRT .M      1817.6748       :START DEPTH     
STOP .M        25.7556       :STOP DEPTH     
STEP .M        -0.1524       :STEP     
NULL .          -999.25      :NULL VALUE
COMP .        GNPOC                                    :COMPANY
WELL .        Haraz-2                                  :WELL
FLD  .        Block 4                                  :FIELD
LOC  .                                                 :LOCATION
CNTY .        Roll'n 15                                :COUNTY
STAT .        Sudan                                    :STATE
CTRY .        Sudan                                    :COUNTRY
API  .                                                 :API NUMBER
UWI  .                                                 :UNIQUE WELL ID
DATE .        29-Sep-2004                              :LOG DATE {DD-MMM-YYYY}
SRVC .        Schlumberger                             :SERVICE COMPANY
LATI .DEG     10 31' 53.73" N                          :LATITUDE
LONG .DEG     28 05' 10.61" E                          :LONGITUDE
GDAT .                                                 :GeoDetic Datum
RMS  .OHM.M   0.0723                                   :MUD RESISTIVITY @ 83.0 DEGF
RMFS .OHM.M   0.0512                                   :MUD FILTRATE RESISTIVITY @ 83.6 DEGF
RMCS .OHM.M   0.1592                                   :MUD CAKE RESISTIVIT @ 82.90 DEGF
BSAL .PPM     35500                                    :BORE HOLE SALINITY
MRT  .DEGF    168                                      :MAXIMUM RECORDED TEMPERATURE
HOLV .M3      54.73                                    :HOLE VOLUME
CEMV .M3      31.90                                    :CEMENT VOLUME
#-----------------------------------------------------------------------------
~PARAMETER INFORMATION
#MNEM.UNIT    VALUE                      DESCRIPTION
#---- -----   --------------------       ------------------------
RUN  .          1                        :RUN NUMBER
PDAT .        MSL                        :Permanent Datum
EPD  .M           0.000000               :Elevation of Permanent Datum above Mean Sea Level
EPD  .M           0.000000               :Elevation of tool zero above Mean Sea Level
LMF  .          KB                       :Logging Measured From (Name of Logging Elevation Reference)
APD  .M         422.820007               :Elevation of Depth Reference (LMF) above Permanent Datum
#-----------------------------------------------------------------------------
~CURVE INFORMATION
#MNEM.UNIT   API CODE                                  DESCRIPTION
#---- -----  --------                                  -----------------------
DEPT .M                                                :DEPTH (BOREHOLE) {F10.4}
BS   .IN                                               :Bit Size {F13.4}
CALI .IN                                               :Caliper {F13.4}
DRHO .G/C3                                             :Bulk Density Correction {F13.4}
DT   .US/F                                             :Delta-T {F13.4}
GR   .GAPI                                             :Gamma Ray {F13.4}
LLD  .OHMM                                             :DEEP RESISTIVITY {F13.4}
LLS  .OHMM                                             :SHALLOW RESISTIVITY {F13.4}
MSFL .OHMM                                             :MSFL RESISTIVITY {F13.4}
NPHI .V/V                                              :Thermal Neutron Porosity (Ratio Method) {F13.4}
PEF  .                                                 :Photoelectric Factor {F13.4}
RHOB .G/C3                                             :Bulk Density {F13.4}
SP   .MV                                               :SP Shifted {F13.4}
TENS .LBF                                              :Cable Tension {F13.4}
#-----------------------------------------------------------------------------
# 
#     DEPT        BS           CALI         DRHO         DT           GR           LLD          LLS          MSFL         NPHI         PEF          RHOB         SP           TENS
#
~A  
# ...
 1577.6448       9.8750       9.7890      -0.0004      91.5000      58.7586      29.2827      11.1532       0.6964       0.2328       2.3646       2.1702    -119.3750    4917.0000
 1577.4924       9.8750       9.7891      -0.0017      91.8000      56.1898      49.0222      17.2452       0.7611       0.2239       2.3649       2.1649    -116.6875    4923.0000
 1577.3400       9.8750       9.7882       0.0016      91.2000      56.3979      43.0249      14.9363       1.8748       0.2305       2.3019       2.1844    -120.6250    4928.0000
 1577.1876       9.8750       9.7885       0.0034      89.5000      53.5017      34.0003      11.5216       1.1506       0.2042       2.2767       2.2028    -117.4375    4929.0000
 1577.0352       9.8750       9.7891       0.0053      88.9000      54.2509      29.9795       8.9921       0.5356       0.2100       2.2827       2.2253    -120.5000    4950.0000
 1576.8828       9.8750       9.7864       0.0050      88.5000      51.2392      31.1616       7.6667       0.6070       0.2047       2.3352       2.2207    -118.8125    4951.0000
 1576.7304       9.8750       9.7910       0.0032      88.8000      51.8811      39.3243       7.8746       1.1063       0.2171       2.3228       2.2147    -119.7500    4916.0000
 1576.5780       9.8750       9.7780      -0.0005      90.0000      47.3267      57.4245       9.4065       1.2990       0.2129       2.5181       2.2008    -121.3750    4968.0000
 1576.4256       9.8750       9.7795       0.0005      90.0000      48.2117      72.7922      10.6325       1.3109       0.2024       2.5857       2.1946    -125.1250    4968.0000
 1576.2732       9.8750       9.7759      -0.0011      90.4000      49.4718      82.8749      11.2996       2.2753       0.2125       2.6222       2.1798    -121.0625    5014.0000
 1576.1208       9.8750       9.7773      -0.0010      90.4000      51.6716      86.3158      11.4278       1.8157       0.2241       2.4071       2.1747    -108.9375    5029.0000
 1575.9684       9.8750       9.7776       0.0027      89.1000      53.5843      83.3969      10.8233       1.7049       0.2262       2.3168       2.1848    -118.5000    5070.0000
 1575.8160       9.8750       9.7743       0.0057      89.2000      52.3490      73.6732       9.7019       1.1683       0.2231       2.2731       2.2070    -119.7500    5091.0000
 1575.6636       9.8750       9.7806       0.0045      88.5000      51.9142      68.5497       9.1479       0.9773       0.2118       2.3010       2.2222    -115.9375    5105.0000
 1575.5112       9.8750       9.7773       0.0038      88.2000      50.5233      66.4634       8.9963       0.8122       0.2137       2.2940       2.2165    -106.2500    5145.0000
 1575.3588       9.8750       9.7799       0.0023      89.1000      50.5233      65.6617       9.3529       1.8956       0.2075       2.2595       2.2001    -107.2500    5148.0000
 1575.2064       9.8750       9.7828       0.0019      90.2000      48.6035      70.7116      10.1689       2.5383       0.2111       2.2080       2.1844    -104.3750    5154.0000
 1575.0540       9.8750       9.7822       0.0012      90.7000      47.5399      73.4691      10.9416       3.0865       0.2057       2.1533       2.1773    -118.3125    5171.0000
 1574.9016       9.8750       9.7817       0.0046      90.7000      47.0812      72.5718      11.2165       3.5511       0.2273       2.1742       2.1757    -118.0000    5189.0000
 1574.7492       9.8750       9.7828       0.0037      91.2000      45.5828      68.2012      10.5811       3.5829       0.2359       2.1030       2.1688    -122.7500    5215.0000
 1574.5968       9.8750       9.7839       0.0038      91.3000      45.0476      61.9597       9.4375       4.2055       0.2412       2.0707       2.1688    -119.9375    5230.0000
 1574.4444       9.8750       9.7806       0.0002      91.3000      45.9095      54.9117       8.2922       2.6419       0.2212       2.0172       2.1657    -121.6875    5266.0000
 1574.2920       9.8750       9.7814       0.0019      91.3000      51.9609      48.0175       7.1647       2.1549       0.2153       1.9756       2.1806    -123.1250    5240.0000
 1574.1396       9.8750       9.7828      -0.0001      90.4000      53.6734      43.2930       6.3821       2.2404       0.2147       2.0617       2.1849    -120.8750    5247.0000
 1573.9872       9.8750       9.7822      -0.0033      90.1000      53.5664      42.6526       6.2473       1.3795       0.2142       2.1610       2.1822    -123.2500    5280.0000
 1573.8348       9.8750       9.7846      -0.0056      90.5000      52.6707      44.9097       6.4860       0.7843       0.2137       2.3003       2.1722    -125.9375    5275.0000
 1573.6824       9.8750       9.7817      -0.0057      90.5000      51.2499      49.0136       7.0808       1.2796       0.2161       2.2595       2.1690    -116.0625    5315.0000
 1573.5300       9.8750       9.7828      -0.0056      91.0000      49.8652      56.5459       8.1314       1.2336       0.2292       2.2130       2.1776    -113.2500    5328.0000
 1573.3776       9.8750       9.7828      -0.0036      91.0000      46.3090      62.8910       9.2129       1.7642       0.2220       2.2121       2.1763    -118.2500    5378.0000
 1573.2252       9.8750       9.7853       0.0018      91.3000      46.1960      66.5972      10.0411       2.1097       0.2232       2.1715       2.1706    -124.6875    9250.0000
 1573.0728       9.8750       9.7846       0.0001      92.0000      48.6506      69.7729      10.6186       1.8022       0.2233       2.1311       2.1519    -116.5625    4862.0000
 1572.9204       9.8750       9.7817      -0.0035      92.1000      48.4484      71.5153      10.8274       2.2024       0.2319       2.0621       2.1493    -126.4375    4942.0000
 1572.7680       9.8750       9.7817      -0.0028      91.9000      48.9380      69.8897      10.7209       2.3989       0.2336       2.0860       2.1588    -123.9375    4878.0000
 1572.6156       9.8750       9.7846      -0.0055      91.5000      48.0889      65.0131      10.0295       2.0748       0.2281       2.0866       2.1703    -102.2500    4873.0000
 1572.4632       9.8750       9.7828      -0.0098      91.3000      49.4744      61.8346       9.5727       1.3666       0.2300       2.1146       2.1622    -115.4375    4898.0000
 1572.3108       9.8750       9.7853      -0.0115      91.8000      50.3405      58.2922       9.0845       1.1839       0.2310       2.0925       2.1506    -117.1250    4880.0000
 1572.1584       9.8750       9.7817      -0.0063      92.2000      49.2639      49.5242       7.5124       1.6275       0.2300       2.0574       2.1443    -123.0625    4889.0000
 1572.0060       9.8750       9.7846      -0.0050      92.7000      51.9321      42.1836       6.2877       3.4633       0.2372       2.0813       2.1490    -120.0625    4912.0000
 1571.8536       9.8750       9.7828       0.0009      92.6000      51.7062      40.4286       5.9395       2.2294       0.2335       2.0594       2.1601    -100.8750    4917.0000
 1571.7012       9.8750       9.7835       0.0040      92.1000      51.7840      39.8030       5.7981       1.3517       0.2389       2.0477       2.1624    -122.4375    4932.0000
 1571.5488       9.8750       9.7828       0.0082      92.3000      48.4311      42.4226       6.1280       2.4806       0.2367       1.9463       2.1549    -127.5000    4944.0000
 1571.3964       9.8750       9.7841       0.0063      92.3000      48.2655      52.8703       7.5913       4.9263       0.2423       1.9514       2.1510    -119.9375    4995.0000
 1571.2440       9.8750       9.7809       0.0064      91.8000      48.4084      60.8269       8.9647       3.3477       0.2353       2.0484       2.1666    -127.3125    5002.0000
 1571.0916       9.8750       9.7853       0.0054      90.9000      50.1030      62.4489       9.7172       1.5623       0.2375       2.1440       2.1787    -123.5000    5030.0000
 1570.9392       9.8750       9.7817       0.0043      90.5000      50.3449      62.9478      10.0553       2.6760       0.2397       2.1420       2.1835    -113.0000    5064.0000
