~VERSION INFORMATION
VERS.           2.0   :CWLS Log ASCII Standard - VERSION 2.0
WRAP.           NO    :One Line per depth step
PROD.  Schlumberger   :LAS Producer
PROG.  DLIS to ASCII 11C0-305                          :LAS Program name and version
CREA.        2004/09/30 14:49                          :LAS Creation date {YYYY/MM/DD hh:mm}
SOURCE.     DLL_SONIC_LDL_CNL_035PUP.DLIS              :DLIS File Name
FILE-ID.     DLL_SONIC_LDL_CNL_035PUP                  :File Identification Number
#--------------------------------------------------
~WELL INFORMATION
#MNEM.UNIT      DATA             DESCRIPTION
#---- ------ --------------   -----------------------------
STRT .M      1817.6748       :START DEPTH     
STOP .M        25.7556       :STOP DEPTH     
STEP .M        -0.1524       :STEP     
NULL .          -999.25      :NULL VALUE
COMP .        GNPOC                                    :COMPANY
WELL .        Haraz-2                                  :WELL
FLD  .        Block 4                                  :FIELD
LOC  .                                                 :LOCATION
CNTY .        Roll'n 15                                :COUNTY
STAT .        Sudan                                    :STATE
CTRY .        Sudan                                    :COUNTRY
API  .                                                 :API NUMBER
UWI  .                                                 :UNIQUE WELL ID
DATE .        29-Sep-2004                              :LOG DATE {DD-MMM-YYYY}
SRVC .        Schlumberger                             :SERVICE COMPANY
LATI .DEG     10 31' 53.73" N                          :LATITUDE
LONG .DEG     28 05' 10.61" E                          :LONGITUDE
GDAT .                                                 :GeoDetic Datum
RMS  .OHM.M   0.0723                                   :MUD RESISTIVITY @ 83.0 DEGF
RMFS .OHM.M   0.0512                                   :MUD FILTRATE RESISTIVITY @ 83.6 DEGF
RMCS .OHM.M   0.1592                                   :MUD CAKE RESISTIVIT @ 82.90 DEGF
BSAL .PPM     35500                                    :BORE HOLE SALINITY
MRT  .DEGF    168                                      :MAXIMUM RECORDED TEMPERATURE
HOLV .M3      54.73                                    :HOLE VOLUME
CEMV .M3      31.90                                    :CEMENT VOLUME
#-----------------------------------------------------------------------------
~PARAMETER INFORMATION
#MNEM.UNIT    VALUE                      DESCRIPTION
#---- -----   --------------------       ------------------------
RUN  .          1                        :RUN NUMBER
PDAT .        MSL                        :Permanent Datum
EPD  .M           0.000000               :Elevation of Permanent Datum above Mean Sea Level
EPD  .M           0.000000               :Elevation of tool zero above Mean Sea Level
LMF  .          KB                       :Logging Measured From (Name of Logging Elevation Reference)
APD  .M         422.820007               :Elevation of Depth Reference (LMF) above Permanent Datum
#-----------------------------------------------------------------------------
~CURVE INFORMATION
#MNEM.UNIT   API CODE                                  DESCRIPTION
#---- -----  --------                                  -----------------------
DEPT .M                                                :DEPTH (BOREHOLE) {F10.4}
BS   .IN                                               :Bit Size {F13.4}
CALI .IN                                               :Caliper {F13.4}
DRHO .G/C3                                             :Bulk Density Correction {F13.4}
DT   .US/F                                             :Delta-T {F13.4}
GR   .GAPI                                             :Gamma Ray {F13.4}
LLD  .OHMM                                             :DEEP RESISTIVITY {F13.4}
LLS  .OHMM                                             :SHALLOW RESISTIVITY {F13.4}
MSFL .OHMM                                             :MSFL RESISTIVITY {F13.4}
NPHI .V/V                                              :Thermal Neutron Porosity (Ratio Method) {F13.4}
PEF  .                                                 :Photoelectric Factor {F13.4}
RHOB .G/C3                                             :Bulk Density {F13.4}
SP   .MV                                               :SP Shifted {F13.4}
TENS .LBF                                              :Cable Tension {F13.4}
#-----------------------------------------------------------------------------
# 
#     DEPT        BS           CALI         DRHO         DT           GR           LLD          LLS          MSFL         NPHI         PEF          RHOB         SP           TENS
#
~A  
# ...
  151.1808       9.8750       2.7770      -0.4693      65.0000      67.9150      60.5200      84.3152       0.1209       0.5077      30.4608       1.8632     -34.8750   11191.0000
  151.0284       9.8750       2.7752      -0.4673      65.3000      70.4583      60.5200      39.9773       0.1209       0.5148      32.7120       1.8661     -34.6875   10986.0000
  150.8760       9.8750       2.7746      -0.4537      65.6000      69.1413      60.5200      12.7449       0.1209       0.5215      33.7573       1.8906     -34.7500   10877.0000
  150.7236       9.8750       2.7774      -0.4462      65.5000      76.6371      60.5200      21.8515       0.1209       0.4887      38.0077       1.9021     -34.6875   11034.0000
  150.5712       9.8750       2.7749      -0.4329      65.3000      77.7911      60.5200      80.7576       0.1209       0.4854      39.3168       1.9304     -34.8750   11076.0000
  150.4188       9.8750       2.7777      -0.4184      65.1000      72.3431      60.5200      28.9789       0.1209       0.4953      49.6769       1.9387     -34.6250   10961.0000
  150.2664       9.8750       2.7749      -0.4032      57.4000      70.7152      60.5200      55.1126       0.1209       0.5359      47.5002       1.9442     -34.5000   11038.0000
  150.1140       9.8750       2.7770      -0.3917      56.5000      70.1170      60.5200      98.6000       0.1209       0.5259      51.4610       1.9436     -34.8750   11115.0000
  149.9616       9.8750       2.7752      -0.3738      56.4000      75.2037      60.5200      16.1356       0.1209       0.5349      39.7295       1.9668     -34.8750   11091.0000
  149.8092       9.8750       2.7770      -0.3490      56.6000      76.8569      60.5200      20.7718       0.1209       0.4910      41.7522       2.0086     -34.9375   11166.0000
  149.6568       9.8750       2.7749      -0.3256      57.0000      78.0532      60.5200      27.1592       0.1209       0.4852      35.6616       2.0409     -35.0000   11121.0000
  149.5044       9.8750       2.7752      -0.3028      56.5000      81.9687      60.5200      98.6000       0.1210       0.4956      33.0627       2.0771     -34.8125   11009.0000
  149.3520       9.8750       2.7767      -0.2808      56.4000      87.7219      60.5200      10.0972       0.1210       0.5511      30.5905       2.1346     -34.8125   10956.0000
  149.1996       9.8750       2.7774      -0.2557      57.1000      90.0119      60.5200      18.3493       0.1209       0.6113      30.6817       2.1958     -34.6875   10934.0000
  149.0472       9.8750       2.7746      -0.2456      55.5000      87.2730      60.5200      50.1333       0.1209       0.5593      32.9950       2.2188     -34.5625   10919.0000
  148.8948       9.8750       2.7770      -0.2459      58.1000      76.0516      60.5200      98.6000       0.1209       0.5158      31.8993       2.2030     -34.3750   10913.0000
  148.7424       9.8750       2.7749      -0.2435      56.9000      69.2118      60.5200      10.1259       0.1209       0.4731      31.5695       2.1892     -34.5000   10904.0000
  148.5900       9.8750       2.7774      -0.2330      56.6000      65.0900      60.5200      98.6000       0.1209       0.5254      28.1899       2.1998     -34.3125   10905.0000
  148.4376       9.8750       2.7749      -0.2421      56.6000      69.0560      60.5200      53.2773       0.1209       0.5334      29.5698       2.2113     -34.0625   10921.0000
  148.2852       9.8750       2.7767      -0.2510      55.7000      73.8451      60.5200       8.7569       0.1209       0.5305      33.5646       2.3065     -34.0000   10937.0000
  148.1328       9.8750       2.7752      -0.2490      57.3000      73.5910      60.5200      98.6000       0.1213       0.5141      35.6739       2.4497     -33.7500   11034.0000
  147.9804       9.8750       2.7774      -0.2332      59.8000      71.3489      60.5200      20.5868       0.1218       0.4904      36.6373       2.6068     -33.9375   11040.0000
  147.8280       9.8750       2.7746      -0.2852      58.7000      67.9366      60.5200      98.6000       0.1217       0.5158      30.8283       2.4971     -33.7500   10995.0000
  147.6756       9.8750       2.7770      -0.3421      59.5000      72.3352      60.5200      98.6000       0.1228       0.5324      28.7181       2.3277     -33.8125   10988.0000
  147.5232       9.8750       2.7755      -0.3624      39.6000      73.6633      60.5200       9.4746       0.1250       0.5350      27.8374       2.2048     -33.7500   10962.0000
  147.3708       9.8750       2.7770      -0.3693      65.2000      75.8231      60.5200      50.1808       0.1221       0.5067      30.6603       2.1494     -33.4375   10976.0000
  147.2184       9.8750       2.7746      -0.3835      57.5000      74.6041      60.5200      41.9182       0.1224       0.4934      35.4994       2.1252     -33.1875   11083.0000
  147.0660       9.8750       2.7770      -0.3972      56.3000      73.9906      60.5200       8.0039       0.1218       0.4966      41.7756       2.1066     -33.3750   11068.0000
  146.9136       9.8750       2.7755      -0.3982      56.4000      74.1177      60.5200      42.8691       0.1211       0.5125      53.7957       2.1063     -33.3750   11027.0000
  146.7612       9.8750       2.7749      -0.4059      55.9000      73.7588      60.5200      98.6000       0.1208       0.4971      66.4719       2.0857     -33.3750   10974.0000
  146.6088       9.8750       2.7774      -0.4189      48.0000      74.1179      60.5200      34.2267       0.1209       0.5059      54.0363       2.0544     -33.3750   10971.0000
  146.4564       9.8750       2.7746      -0.4297      55.9000      76.4312      60.5200      26.8219       0.1209       0.4872      51.5048       2.0256     -33.3125   10958.0000
  146.3040       9.8750       2.7774      -0.4372      56.5000      75.2621      60.5200      21.7569       0.1208       0.4901      60.6820       2.0069     -33.1250   10985.0000
  146.1516       9.8750       2.7746      -0.4304      57.0000      74.3939      60.5200      17.7134       0.1208       0.4698      58.1588       2.0128     -33.1875   10985.0000
  145.9992       9.8750       2.7774      -0.4362      56.8000      69.9761      60.5200      13.7624       0.1208       0.5099      50.6730       2.0002     -33.1875   10933.0000
  145.8468       9.8750       2.7752      -0.4354      56.9000      70.1031      60.5200      98.6000       0.1209       0.4956      37.7634       1.9969     -32.9375   10960.0000
  145.6944       9.8750       2.7767      -0.4338      65.6000      69.2970      60.5200      18.8899       0.1209       0.5140      38.3524       1.9982     -32.6875   10951.0000
  145.5420       9.8750       2.7749      -0.4267      65.1000      69.3911      60.5200      23.2985       0.1209       0.4598      37.1085       2.0065     -32.6875   10941.0000
  145.3896       9.8750       2.7770      -0.4353      65.0000      71.8291      60.5200      98.6000       0.1209       0.4566      32.0270       2.0024     -32.5625   10944.0000
  145.2372       9.8750       2.7752      -0.4407      64.9000      74.4634      60.5200      27.3542       0.1209       0.4806      31.2943       1.9889     -32.5000   10925.0000
  145.0848       9.8750       2.7770      -0.4532      65.0000      76.7524      60.5200      98.6000       0.1208       0.5102      26.1832       1.9701     -32.3125   10916.0000
  144.9324       9.8750       2.7752      -0.4690      64.8000      77.5098      60.5200       8.9718       0.1208       0.5102      35.4211       1.9471     -32.1250   10918.0000
  144.7800       9.8750       2.7767      -0.5031      65.0000      80.8735      60.5200      46.2703       0.1208       0.4907      36.4834       1.9118     -31.8750   10935.0000
  144.6276       9.8750       2.7752      -0.5310      64.8000      81.1031      60.5200      32.3640       0.1208       0.5043      37.2542       1.8799     -31.8125   10923.0000
  144.4752       9.8750       2.7767      -0.5508      65.4000      82.4435      60.5200      13.6095       0.1208       0.5438      31.7832       1.8565     -31.8750   10948.0000
