~VERSION INFORMATION
VERS.           2.0   :CWLS Log ASCII Standard - VERSION 2.0
WRAP.           NO    :One Line per depth step
PROD.  Schlumberger   :LAS Producer
PROG.  DLIS to ASCII 11C0-305                          :LAS Program name and version
CREA.        2004/09/30 14:49                          :LAS Creation date {YYYY/MM/DD hh:mm}
SOURCE.     DLL_SONIC_LDL_CNL_035PUP.DLIS              :DLIS File Name
FILE-ID.     DLL_SONIC_LDL_CNL_035PUP                  :File Identification Number
#--------------------------------------------------
~WELL INFORMATION
#MNEM.UNIT      DATA             DESCRIPTION
#---- ------ --------------   -----------------------------
STRT .M      1817.6748       :START DEPTH     
STOP .M        25.7556       :STOP DEPTH     
STEP .M        -0.1524       :STEP     
NULL .          -999.25      :NULL VALUE
COMP .        GNPOC                                    :COMPANY
WELL .        Haraz-2                                  :WELL
FLD  .        Block 4                                  :FIELD
LOC  .                                                 :LOCATION
CNTY .        Roll'n 15                                :COUNTY
STAT .        Sudan                                    :STATE
CTRY .        Sudan                                    :COUNTRY
API  .                                                 :API NUMBER
UWI  .                                                 :UNIQUE WELL ID
DATE .        29-Sep-2004                              :LOG DATE {DD-MMM-YYYY}
SRVC .        Schlumberger                             :SERVICE COMPANY
LATI .DEG     10 31' 53.73" N                          :LATITUDE
LONG .DEG     28 05' 10.61" E                          :LONGITUDE
GDAT .                                                 :GeoDetic Datum
RMS  .OHM.M   0.0723                                   :MUD RESISTIVITY @ 83.0 DEGF
RMFS .OHM.M   0.0512                                   :MUD FILTRATE RESISTIVITY @ 83.6 DEGF
RMCS .OHM.M   0.1592                                   :MUD CAKE RESISTIVIT @ 82.90 DEGF
BSAL .PPM     35500                                    :BORE HOLE SALINITY
MRT  .DEGF    168                                      :MAXIMUM RECORDED TEMPERATURE
HOLV .M3      54.73                                    :HOLE VOLUME
CEMV .M3      31.90                                    :CEMENT VOLUME
#-----------------------------------------------------------------------------
~PARAMETER INFORMATION
#MNEM.UNIT    VALUE                      DESCRIPTION
#---- -----   --------------------       ------------------------
RUN  .          1                        :RUN NUMBER
PDAT .        MSL                        :Permanent Datum
EPD  .M           0.000000               :Elevation of Permanent Datum above Mean Sea Level
EPD  .M           0.000000               :Elevation of tool zero above Mean Sea Level
LMF  .          KB                       :Logging Measured From (Name of Logging Elevation Reference)
APD  .M         422.820007               :Elevation of Depth Reference (LMF) above Permanent Datum
#-----------------------------------------------------------------------------
~CURVE INFORMATION
#MNEM.UNIT   API CODE                                  DESCRIPTION
#---- -----  --------                                  -----------------------
DEPT .M                                                :DEPTH (BOREHOLE) {F10.4}
BS   .IN                                               :Bit Size {F13.4}
CALI .IN                                               :Caliper {F13.4}
DRHO .G/C3                                             :Bulk Density Correction {F13.4}
DT   .US/F                                             :Delta-T {F13.4}
GR   .GAPI                                             :Gamma Ray {F13.4}
LLD  .OHMM                                             :DEEP RESISTIVITY {F13.4}
LLS  .OHMM                                             :SHALLOW RESISTIVITY {F13.4}
MSFL .OHMM                                             :MSFL RESISTIVITY {F13.4}
NPHI .V/V                                              :Thermal Neutron Porosity (Ratio Method) {F13.4}
PEF  .                                                 :Photoelectric Factor {F13.4}
RHOB .G/C3                                             :Bulk Density {F13.4}
SP   .MV                                               :SP Shifted {F13.4}
TENS .LBF                                              :Cable Tension {F13.4}
#-----------------------------------------------------------------------------
# 
#     DEPT        BS           CALI         DRHO         DT           GR           LLD          LLS          MSFL         NPHI         PEF          RHOB         SP           TENS
#
~A  
 1817.6748       9.8750       9.3911      -0.0167      94.9000     134.1634      53.7032      37.5007       0.7281       0.1792       2.5819       2.5057    -133.4375    2670.0000
 1817.5224       9.8750       9.3911      -0.0167      94.9000     134.1634      53.7032      37.5007       0.7281       0.1792       2.5819       2.5057    -133.4375    2839.0000
 1817.3700       9.8750       9.3911      -0.0167      94.9000     134.1634      53.7032      37.5007       0.7281       0.1792       2.5819       2.5057    -133.4375    2969.0000
 1817.2176       9.8750       9.3911      -0.0167      94.9000     134.1634      53.7032      37.5007       0.7281       0.1792       2.5819       2.5057    -133.4375    3029.0000
 1817.0652       9.8750       9.3911      -0.0167      94.9000     134.1634      53.7032      37.5007       0.7281       0.1792       2.5819       2.5057    -133.4375    2999.0000
 1816.9128       9.8750       9.3911      -0.0167      94.9000     134.1634      53.7032      37.5007       0.7281       0.1792       2.5819       2.5057    -133.4375    3000.0000
 1816.7604       9.8750       9.3911      -0.0167      94.9000     134.1634      53.7032      37.5007       0.7281       0.1792       2.5819       2.5057    -133.4375    3007.0000
 1816.6080       9.8750       9.3911      -0.0167      94.9000     134.1634      53.7032      37.5007       0.7281       0.1792       2.5819       2.5057    -133.4375    3140.0000
 1816.4556       9.8750       9.3911      -0.0167      94.9000     134.1634      53.7032      37.5007       0.7281       0.1792       2.5819       2.5057    -133.4375    3241.0000
 1816.3032       9.8750       9.3911      -0.0167      94.9000     134.1634      53.7032      37.5007       0.7281       0.1792       2.5819       2.5057    -133.4375    3340.0000
 1816.1508       9.8750       9.3911      -0.0167      94.9000     134.1634      53.7032      37.5007       0.7281       0.1792       2.5819       2.5057    -133.4375    3469.0000
 1815.9984       9.8750       9.3911      -0.0167      94.9000     134.1634      53.7032      37.5007       0.7281       0.1792       2.5819       2.5057    -133.4375    3585.0000
 1815.8460       9.8750       9.3911      -0.0167      94.9000     134.1634      53.7032      37.5007       0.7281       0.1792       2.5819       2.5057    -133.4375    3723.0000
 1815.6936       9.8750       9.3911      -0.0167      94.9000     134.1634      53.7032      37.5007       0.7281       0.1792       2.5819       2.5057    -133.4375    3840.0000
 1815.5412       9.8750       9.3911      -0.0167      94.9000     134.1634      53.7032      37.5007       0.7281       0.1792       2.5819       2.5057    -133.4375    3978.0000
 1815.3888       9.8750       9.3911      -0.0167      94.9000     134.1634      53.7032      37.5007       0.7281       0.1792       2.5819       2.5057    -133.4375    4105.0000
 1815.2364       9.8750       9.3911      -0.0167      94.9000     134.1634      53.7032      37.5007       0.7281       0.1792       2.5819       2.5057    -133.4375    4231.0000
 1815.0840       9.8750       9.3911      -0.0167      94.9000     134.1634      53.7032      37.5007       0.7281       0.1792       2.5819       2.5057    -133.4375    4362.0000
 1814.9316       9.8750       9.3911      -0.0167      94.9000     134.1634      53.7032      37.5007       0.7281       0.1792       2.5819       2.5057    -133.4375    4501.0000
 1814.7792       9.8750       9.3911      -0.0167      94.9000     134.1634      53.7032      37.5007       0.7281       0.1792       2.5819       2.5057    -133.4375    4622.0000
 1814.6268       9.8750       9.3911      -0.0167      94.9000     134.1634      53.7032      37.5007       0.7281       0.1792       2.5819       2.5057    -133.4375    4747.0000
 1814.4744       9.8750       9.3911      -0.0167      94.9000     134.1634      53.7032      37.5007       0.7281       0.1792       2.5819       2.5057    -133.4375    4887.0000
 1814.3220       9.8750       9.3911      -0.0167      94.9000     134.1634      53.7032      37.5007       0.7281       0.1792       2.5819       2.5057    -133.4375    5027.0000
 1814.1696       9.8750       9.3911      -0.0167      94.9000     134.1634      53.7032      37.5007       0.7281       0.1792       2.5819       2.5057    -133.4375    5167.0000
 1814.0172       9.8750       9.3911      -0.0167      94.9000     134.1634      53.7032      37.5007       0.7281       0.1792       2.5819       2.5057    -133.4375    5301.0000
 1813.8648       9.8750       9.3911      -0.0167      94.9000     134.1634      53.7032      37.5007       0.7281       0.1792       2.5819       2.5057    -133.4375    5327.0000
 1813.7124       9.8750       9.3911      -0.0167      94.9000     134.1634      53.7032      37.5007       0.7281       0.1792       2.5819       2.5057    -133.4375    5283.0000
 1813.5600       9.8750       9.3911      -0.0167      94.9000     134.1634      53.7032      37.5007       0.7281       0.1792       2.5819       2.5057    -133.4375    5259.0000
 1813.4076       9.8750       9.3911      -0.0167      94.9000     134.1634      53.7032      37.5007       0.7281       0.1792       2.5819       2.5057    -133.4375    5279.0000
 1813.2552       9.8750       9.3911      -0.0167      94.9000     134.1634      53.7032      37.5007       0.7281       0.1792       2.5819       2.5057    -133.4375    5280.0000
 1813.1028       9.8750       9.3911      -0.0167      94.9000     134.1634      53.7636      36.7210       0.7281       0.1792       2.5819       2.5057    -133.4375    5260.0000
 1812.9504       9.8750       9.3911      -0.0167      94.9000     134.1634      53.8569      36.6617       0.7281       0.1792       2.5819       2.5057    -133.4375    5264.0000
 1812.7980       9.8750       9.3911      -0.0167      94.9000     134.1634      53.7327      36.7028       0.7281       0.1792       2.5819       2.5057    -133.4375    5279.0000
 1812.6456       9.8750       9.3911      -0.0167      94.9000     134.1634      53.6690      36.7198       0.7281       0.1792       2.5819       2.5057    -133.4375    5240.0000
 1812.4932       9.8750       9.3911      -0.0167      94.9000     134.1634      54.0859      36.6529       0.7281       0.1792       2.5819       2.5057    -133.4375    5267.0000
 1812.3408       9.8750       9.3911      -0.0167      94.9000     134.1634      53.7287      36.6417       0.7281       0.1792       2.5819       2.5057    -133.4375    5283.0000
 1812.1884       9.8750       9.3911      -0.0167      94.9000     134.1634      53.6556      36.6708       0.7281       0.1792       2.5819       2.5057    -133.4375    5241.0000
 1812.0360       9.8750       9.3911      -0.0167      94.9000     134.1634      54.0701      36.7403       0.7281       0.1792       2.5819       2.5057    -133.4375    5244.0000
 1811.8836       9.8750       9.3911      -0.0167      94.9000     134.1634      53.7806      36.6512       0.7281       0.1792       2.5819       2.5057    -133.4375    5237.0000
 1811.7312       9.8750       9.3911      -0.0167      94.9000     134.1634      53.4945      36.6590       0.7281       0.1792       2.5819       2.5057    -133.4375    5253.0000
 1811.5788       9.8750       9.3911      -0.0167      94.9000     134.1634      53.9443      36.7267       0.7281       0.1792       2.5819       2.5057    -133.4375    5203.0000
 1811.4264       9.8750       9.3911      -0.0167      94.9000     134.1634      54.0623      36.6947       0.7281       0.1792       2.5819       2.5057    -133.4375    5246.0000
 1811.2740       9.8750       9.3911      -0.0167      94.9000     134.1634      53.6247      36.7481       0.7281       0.1792       2.5819       2.5057    -133.4375    5237.0000
 1811.1216       9.8750       9.3911      -0.0167      94.9000     134.1634      54.1506      36.7005       0.7281       0.1792       2.5819       2.5057    -133.4375    5220.0000
 1810.9692       9.8750       9.3911      -0.0167      94.9000     134.1634      54.0910      36.7308       0.7281       0.1792       2.5819       2.5057    -133.4375    5279.0000
