~VERSION INFORMATION
VERS.           2.0   :CWLS Log ASCII Standard - VERSION 2.0
WRAP.           NO    :One Line per depth step
PROD.  Schlumberger   :LAS Producer
PROG.  DLIS to ASCII 11C0-305                          :LAS Program name and version
CREA.        2004/09/30 14:49                          :LAS Creation date {YYYY/MM/DD hh:mm}
SOURCE.     DLL_SONIC_LDL_CNL_035PUP.DLIS              :DLIS File Name
FILE-ID.     DLL_SONIC_LDL_CNL_035PUP                  :File Identification Number
#--------------------------------------------------
~WELL INFORMATION
#MNEM.UNIT      DATA             DESCRIPTION
#---- ------ --------------   -----------------------------
STRT .M      1817.6748       :START DEPTH     
STOP .M        25.7556       :STOP DEPTH     
STEP .M        -0.1524       :STEP     
NULL .          -999.25      :NULL VALUE
COMP .        GNPOC                                    :COMPANY
WELL .        Haraz-2                                  :WELL
FLD  .        Block 4                                  :FIELD
LOC  .                                                 :LOCATION
CNTY .        Roll'n 15                                :COUNTY
STAT .        Sudan                                    :STATE
CTRY .        Sudan                                    :COUNTRY
API  .                                                 :API NUMBER
UWI  .                                                 :UNIQUE WELL ID
DATE .        29-Sep-2004                              :LOG DATE {DD-MMM-YYYY}
SRVC .        Schlumberger                             :SERVICE COMPANY
LATI .DEG     10 31' 53.73" N                          :LATITUDE
LONG .DEG     28 05' 10.61" E                          :LONGITUDE
GDAT .                                                 :GeoDetic Datum
RMS  .OHM.M   0.0723                                   :MUD RESISTIVITY @ 83.0 DEGF
RMFS .OHM.M   0.0512                                   :MUD FILTRATE RESISTIVITY @ 83.6 DEGF
RMCS .OHM.M   0.1592                                   :MUD CAKE RESISTIVIT @ 82.90 DEGF
BSAL .PPM     35500                                    :BORE HOLE SALINITY
MRT  .DEGF    168                                      :MAXIMUM RECORDED TEMPERATURE
HOLV .M3      54.73                                    :HOLE VOLUME
CEMV .M3      31.90                                    :CEMENT VOLUME
#-----------------------------------------------------------------------------
~PARAMETER INFORMATION
#MNEM.UNIT    VALUE                      DESCRIPTION
#---- -----   --------------------       ------------------------
RUN  .          1                        :RUN NUMBER
PDAT .        MSL                        :Permanent Datum
EPD  .M           0.000000               :Elevation of Permanent Datum above Mean Sea Level
EPD  .M           0.000000               :Elevation of tool zero above Mean Sea Level
LMF  .          KB                       :Logging Measured From (Name of Logging Elevation Reference)
APD  .M         422.820007               :Elevation of Depth Reference (LMF) above Permanent Datum
#-----------------------------------------------------------------------------
~CURVE INFORMATION
#MNEM.UNIT   API CODE                                  DESCRIPTION
#---- -----  --------                                  -----------------------
DEPT .M                                                :DEPTH (BOREHOLE) {F10.4}
BS   .IN                                               :Bit Size {F13.4}
CALI .IN                                               :Caliper {F13.4}
DRHO .G/C3                                             :Bulk Density Correction {F13.4}
DT   .US/F                                             :Delta-T {F13.4}
GR   .GAPI                                             :Gamma Ray {F13.4}
LLD  .OHMM                                             :DEEP RESISTIVITY {F13.4}
LLS  .OHMM                                             :SHALLOW RESISTIVITY {F13.4}
MSFL .OHMM                                             :MSFL RESISTIVITY {F13.4}
NPHI .V/V                                              :Thermal Neutron Porosity (Ratio Method) {F13.4}
PEF  .                                                 :Photoelectric Factor {F13.4}
RHOB .G/C3                                             :Bulk Density {F13.4}
SP   .MV                                               :SP Shifted {F13.4}
TENS .LBF                                              :Cable Tension {F13.4}
#-----------------------------------------------------------------------------
# 
#     DEPT        BS           CALI         DRHO         DT           GR           LLD          LLS          MSFL         NPHI         PEF          RHOB         SP           TENS
#
~A  
# ...
  631.2408       9.8750       2.7461      -0.7380      51.3000      80.5984      60.5200      29.9153       0.1206       0.5978      67.4890       1.5413     -26.3125   17028.0000
  631.0884       9.8750       2.7481      -0.7470      52.6000      82.6076      60.5200      12.2022       0.1205       0.5819      66.1641       1.5090     -26.5000   16913.0000
  630.9360       9.8750       2.7504      -0.7542      52.0000      82.5436      60.5200      13.9465       0.1204       0.6102      55.1316       1.4854     -26.5000   16793.0000
  630.7836       9.8750       2.7481      -0.7635      51.5000      85.5594      60.5200      47.0339       0.1205       0.5777      62.7357       1.4693     -26.4375   16694.0000
  630.6312       9.8750       2.7504      -0.7604      51.3000      84.4827      60.5200      27.4354       0.1205       0.6190      53.8428       1.4724     -26.3125   16574.0000
  630.4788       9.8750       2.7461      -0.7547      50.8000      85.3452      60.5200      13.2816       0.1205       0.6275      53.7234       1.4734     -26.1875   16466.0000
  630.3264       9.8750       2.7494      -0.7479      50.6000      84.8416      60.5200      22.8977       0.1205       0.6473      52.1020       1.4840     -26.1875   16371.0000
  630.1740       9.8750       2.7501      -0.7375      50.8000      84.5823      60.5200      25.3040       0.1204       0.6261      61.5286       1.4977     -26.0000   16346.0000
  630.0216       9.8750       2.7522      -0.7379      50.9000      86.4713      60.5200      11.8071       0.1205       0.6328      61.2723       1.4956     -25.7500   16221.0000
  629.8692       9.8750       2.7504      -0.7465      51.2000      86.7354      60.5200      20.4862       0.1205       0.6612      49.4783       1.4796     -25.5625   16208.0000
  629.7168       9.8750       2.7525      -0.7473      51.0000      83.6675      60.5200      98.6000       0.1205       0.6333      57.6398       1.4836     -25.3125   16193.0000
  629.5644       9.8750       2.7501      -0.7374      51.1000      81.7534      60.5200      15.6641       0.1205       0.6240      56.0677       1.5380     -25.0625   16148.0000
  629.4120       9.8750       2.7522      -0.7298      51.2000      79.9341      60.5200      17.8416       0.1204       0.5829      51.7453       1.5831     -25.0625   15933.0000
  629.2596       9.8750       2.7522      -0.7164      50.8000      82.7828      60.5200      98.6000       0.1205       0.6150      36.3652       1.6285     -24.9375   15682.0000
  629.1072       9.8750       2.7498      -0.7141      51.5000      83.1417      60.5200      98.6000       0.1205       0.6091      36.5847       1.6342     -24.6875   15507.0000
  628.9548       9.8750       2.7516      -0.7102      51.3000      83.8369      60.5200      12.4941       0.1204       0.6472      36.1781       1.6462     -24.4375   15354.0000
  628.8024       9.8750       2.7522      -0.7030      51.0000      86.8276      60.5200      25.7191       0.1205       0.6345      44.3180       1.6603     -24.2500   15316.0000
  628.6500       9.8750       2.7513      -0.7018      51.4000      87.1865      60.5200      41.4353       0.1204       0.6140      49.5687       1.6611     -24.3125   15046.0000
  628.4976       9.8750       2.7525      -0.6907      51.2000      89.1744      60.5200      12.3526       0.1204       0.6170      54.8970       1.6778     -23.9375   14778.0000
  628.3452       9.8750       2.7501      -0.6819      51.8000      88.6959      60.5200      47.0946       0.1205       0.6255      60.2822       1.6808     -23.5625   14426.0000
  628.1928       9.8750       2.7522      -0.6813      51.6000      85.1071      60.5200      65.8764       0.1205       0.6375      49.1462       1.6756     -23.3750   14131.0000
  628.0404       9.8750       2.7522      -0.6712      51.5000      83.6202      60.5200      11.4145       0.1205       0.5854      47.3432       1.6906     -23.1250   13779.0000
  627.8880       9.8750       2.7522      -0.6606      51.3000      80.1510      60.5200       7.6526       0.1205       0.5437      41.6852       1.7003     -23.1250   13439.0000
  627.7356       9.8750       2.7504      -0.6541      51.1000      80.6295      60.5200      11.2053       0.1205       0.5317      40.8343       1.7119     -22.9375   13213.0000
  627.5832       9.8750       2.7522      -0.6521      51.3000      75.1461      60.5200      98.6000       0.1206       0.5680      53.2907       1.7053     -23.0000   12848.0000
  627.4308       9.8750       2.7525      -0.6408      51.4000      75.3201      60.5200      10.7516       0.1205       0.5974      48.7481       1.7159     -22.8750   12577.0000
  627.2784       9.8750       2.7522      -0.6452      51.6000      78.8154      60.5200      46.6592       0.1205       0.6052      41.4493       1.7009     -22.8750   12348.0000
  627.1260       9.8750       2.7522      -0.6479      51.6000      84.7613      60.5200      13.2400       0.1204       0.6660      35.4772       1.6758     -22.8750   12127.0000
  626.9736       9.8750       2.7501      -0.6492      51.4000      85.4247      60.5200       9.7670       0.1204       0.7071      37.3804       1.6644     -22.6875   11972.0000
  626.8212       9.8750       2.7525      -0.6465      51.1000      85.0398      60.5200      98.6000       0.1204       0.7537      43.4195       1.6715     -22.3750   11791.0000
  626.6688       9.8750       2.7529      -0.6362      51.4000      83.8595      60.5200       6.5552       0.1204       0.6566      42.2802       1.7069     -22.2500   11712.0000
  626.5164       9.8750       2.7516      -0.6195      51.5000      86.9974      60.5200      53.4544       0.1204       0.6363      45.8563       1.7388     -21.9375   11542.0000
  626.3640       9.8750       2.7522      -0.6117      51.7000      86.3047      60.5200      24.6500       0.1204       0.5854      53.6605       1.7496     -21.8125   11354.0000
  626.2116       9.8750       2.7501      -0.6079      51.9000      85.5869      60.5200      24.0739       0.1204       0.5941      70.5964       1.7598     -21.4375   11270.0000
  626.0592       9.8750       2.7522      -0.6036      52.1000      81.8085      60.5200       6.8658       0.1207       0.5983      75.7065       1.7675     -21.3125   11114.0000
  625.9068       9.8750       2.7525      -0.5944      52.4000      85.0133      60.5200      31.0313       0.1204       0.5909      67.8666       1.7858     -21.0625   10971.0000
  625.7544       9.8750       2.7513      -0.5927      52.2000      89.7985      60.5200      17.0055       0.1204       0.6343      62.1195       1.7845     -21.0000   10865.0000
  625.6020       9.8750       2.7522      -0.5820      52.9000      90.7033      60.5200      11.8039       0.1205       0.6428      57.0964       1.7933     -21.0625   10773.0000
  625.4496       9.8750       2.7522      -0.5602      53.0000      89.0285      60.5200      37.0010       0.1205       0.6544      57.8132       1.8019     -20.9375   10659.0000
  625.2972       9.8750       2.7522      -0.5385      52.6000      85.9427      60.5200      17.8704       0.1204       0.6388      42.5702       1.8103     -20.8125   10534.0000
  625.1448       9.8750       2.7522      -0.5279      52.6000      86.0374      60.5200      22.0577       0.1207       0.6176      39.8579       1.7919     -20.8125   10455.0000
  624.9924       9.8750       2.7507      -0.5121      52.5000      84.3626      60.5200      18.9651       0.1205       0.6600      32.2610       1.7836     -21.0000   10375.0000
  624.8400       9.8750       2.7522      -0.5035      52.1000      82.6632      60.5200      17.3079       0.1205       0.6803      47.7432       1.7531     -21.1250   10233.0000
  624.6876       9.8750       2.7522      -0.4992      51.8000      78.8381      60.5200       6.6969       0.1204       0.6679      53.4879       1.7187     -21.1250   10143.0000
  624.5352       9.8750       2.7522      -0.4920      51.9000      75.9895      60.5200      98.6000       0.1204       0.6340      84.2469       1.7078     -20.9375   10104.0000
