~VERSION INFORMATION
VERS.           2.0   :CWLS Log ASCII Standard - VERSION 2.0
WRAP.           NO    :One Line per depth step
PROD.  Schlumberger   :LAS Producer
PROG.  DLIS to ASCII 11C0-305                          :LAS Program name and version
CREA.        2004/09/30 14:49                          :LAS Creation date {YYYY/MM/DD hh:mm}
SOURCE.     DLL_SONIC_LDL_CNL_035PUP.DLIS              :DLIS File Name
FILE-ID.     DLL_SONIC_LDL_CNL_035PUP                  :File Identification Number
#--------------------------------------------------
~WELL INFORMATION
#MNEM.UNIT      DATA             DESCRIPTION
#---- ------ --------------   -----------------------------
STRT .M      1817.6748       :START DEPTH     
STOP .M        25.7556       :STOP DEPTH     
STEP .M        -0.1524       :STEP     
NULL .          -999.25      :NULL VALUE
COMP .        GNPOC                                    :COMPANY
WELL .        Haraz-2                                  :WELL
FLD  .        Block 4                                  :FIELD
LOC  .                                                 :LOCATION
CNTY .        Roll'n 15                                :COUNTY
STAT .        Sudan                                    :STATE
CTRY .        Sudan                                    :COUNTRY
API  .                                                 :API NUMBER
UWI  .                                                 :UNIQUE WELL ID
DATE .        29-Sep-2004                              :LOG DATE {DD-MMM-YYYY}
SRVC .        Schlumberger                             :SERVICE COMPANY
LATI .DEG     10 31' 53.73" N                          :LATITUDE
LONG .DEG     28 05' 10.61" E                          :LONGITUDE
GDAT .                                                 :GeoDetic Datum
RMS  .OHM.M   0.0723                                   :MUD RESISTIVITY @ 83.0 DEGF
RMFS .OHM.M   0.0512                                   :MUD FILTRATE RESISTIVITY @ 83.6 DEGF
RMCS .OHM.M   0.1592                                   :MUD CAKE RESISTIVIT @ 82.90 DEGF
BSAL .PPM     35500                                    :BORE HOLE SALINITY
MRT  .DEGF    168                                      :MAXIMUM RECORDED TEMPERATURE
HOLV .M3      54.73                                    :HOLE VOLUME
CEMV .M3      31.90                                    :CEMENT VOLUME
#-----------------------------------------------------------------------------
~PARAMETER INFORMATION
#MNEM.UNIT    VALUE                      DESCRIPTION
#---- -----   --------------------       ------------------------
RUN  .          1                        :RUN NUMBER
PDAT .        MSL                        :Permanent Datum
EPD  .M           0.000000               :Elevation of Permanent Datum above Mean Sea Level
EPD  .M           0.000000               :Elevation of tool zero above Mean Sea Level
LMF  .          KB                       :Logging Measured From (Name of Logging Elevation Reference)
APD  .M         422.820007               :Elevation of Depth Reference (LMF) above Permanent Datum
#-----------------------------------------------------------------------------
~CURVE INFORMATION
#MNEM.UNIT   API CODE                                  DESCRIPTION
#---- -----  --------                                  -----------------------
DEPT .M                                                :DEPTH (BOREHOLE) {F10.4}
BS   .IN                                               :Bit Size {F13.4}
CALI .IN                                               :Caliper {F13.4}
DRHO .G/C3                                             :Bulk Density Correction {F13.4}
DT   .US/F                                             :Delta-T {F13.4}
GR   .GAPI                                             :Gamma Ray {F13.4}
LLD  .OHMM                                             :DEEP RESISTIVITY {F13.4}
LLS  .OHMM                                             :SHALLOW RESISTIVITY {F13.4}
MSFL .OHMM                                             :MSFL RESISTIVITY {F13.4}
NPHI .V/V                                              :Thermal Neutron Porosity (Ratio Method) {F13.4}
PEF  .                                                 :Photoelectric Factor {F13.4}
RHOB .G/C3                                             :Bulk Density {F13.4}
SP   .MV                                               :SP Shifted {F13.4}
TENS .LBF                                              :Cable Tension {F13.4}
#-----------------------------------------------------------------------------
# 
#     DEPT        BS           CALI         DRHO         DT           GR           LLD          LLS          MSFL         NPHI         PEF          RHOB         SP           TENS
#
~A  
# ...
  274.6248       9.8750       2.7706      -0.7963      69.3000      85.6388      60.5200      76.2419       0.1334       0.5721      29.0922       1.9575     -36.1250   11156.0000
  274.4724       9.8750       2.7712      -0.7830      75.5000      89.9585      60.5200      12.3344       0.1244       0.5930      30.8566       1.7545     -36.6250   11195.0000
  274.3200       9.8750       2.7706      -0.7259      65.0000      87.0605      60.5200      81.1934       0.1209       0.5969      35.3921       1.6819     -36.8750   11193.0000
  274.1676       9.8750       2.7726      -0.7122      73.1000      81.1291      60.5200      38.1402       0.1208       0.5592      58.6626       1.6742     -36.6250   11208.0000
  274.0152       9.8750       2.7665      -0.7041      65.3000      79.4379      60.5200      23.2574       0.1209       0.5360      43.0535       1.7162     -36.8125   11165.0000
  273.8628       9.8750       2.7668      -0.7079      64.8000      75.0462      60.5200      51.1846       0.1211       0.5213      39.3042       1.7202     -37.1250   11147.0000
  273.7104       9.8750       2.7709      -0.7146      63.3000      77.2409      60.5200      98.6000       0.1210       0.5146      31.0171       1.7094     -37.3125   11107.0000
  273.5580       9.8750       2.7706      -0.7303      66.1000      74.9429      60.5200      15.3085       0.1209       0.5852      42.5789       1.6306     -37.2500   11077.0000
  273.4056       9.8750       2.7726      -0.7617      57.8000      73.9473      60.5200      13.4035       0.1208       0.6037      42.1423       1.5194     -37.4375   11097.0000
  273.2532       9.8750       2.7709      -0.7747      56.8000      69.1622      60.5200      98.6000       0.1211       0.6298      54.0549       1.4681     -37.3125   11042.0000
  273.1008       9.8750       2.7706      -0.7650      56.6000      69.1412      60.5200      35.7682       0.1210       0.6255      56.7878       1.4836     -37.3750   11019.0000
  272.9484       9.8750       2.7729      -0.7508      56.4000      72.0163      60.5200      16.5356       0.1208       0.5742      66.7266       1.5520     -37.7500   10975.0000
  272.7960       9.8750       2.7705      -0.7389      56.4000      74.6555      60.5200      61.6316       0.1209       0.5494      67.4871       1.6079     -37.7500   11083.0000
  272.6436       9.8750       2.7746      -0.7289      56.0000      75.6125      60.5200      98.6000       0.1211       0.4964      59.2057       1.6458     -37.5625   11045.0000
  272.4912       9.8750       2.7712      -0.7298      56.1000      74.7751      60.5200      20.3702       0.1207       0.5516      50.7765       1.6362     -37.7500   10963.0000
  272.3388       9.8750       2.7726      -0.7595      55.7000      72.9733      60.5200      59.5863       0.1207       0.5637      50.0506       1.5650     -37.9375   10956.0000
  272.1864       9.8750       2.7746      -0.7648      55.7000      68.2953      60.5200      10.4788       0.1208       0.5831      46.2465       1.5019     -38.2500   10958.0000
  272.0340       9.8750       2.7749      -0.7758      55.9000      64.6049      60.5200      21.4362       0.1208       0.5672      44.4817       1.4323     -38.4375   10950.0000
  271.8816       9.8750       2.7749      -0.7796      55.8000      57.7861      60.5200      74.2673       0.1208       0.5838      39.4701       1.3857     -38.6250   10946.0000
  271.7292       9.8750       2.7749      -0.7699      55.9000      57.5594      60.5200      12.6882       0.1209       0.5760      44.7033       1.3854     -38.8125   10939.0000
  271.5768       9.8750       2.7746      -0.7479      56.2000      57.1774      60.5200      16.4756       0.1208       0.6129      46.4688       1.4152     -38.9375   10961.0000
  271.4244       9.8750       2.7727      -0.7294      56.7000      59.3480      60.5200      98.6000       0.1208       0.6129      48.9632       1.4636     -39.0000   10971.0000
  271.2720       9.8750       2.7749      -0.7153      58.0000      65.5273      60.5200      26.6612       0.1209       0.6013      42.1269       1.5025     -39.1250   10941.0000
  271.1196       9.8750       2.7746      -0.6970      65.0000      69.1211      60.5200      14.0951       0.1209       0.5898      51.7131       1.5485     -39.2500   10909.0000
  270.9672       9.8750       2.7749      -0.6911      65.5000      76.6912      60.5200      98.6000       0.1208       0.5937      65.5311       1.5516     -39.9375   10925.0000
  270.8148       9.8750       2.7749      -0.6917      65.4000      72.4452      60.5200      14.6779       0.1210       0.5847      69.1741       1.5374     -41.5000   10908.0000
  270.6624       9.8750       2.7746      -0.6961      65.6000      70.5311      60.5200      18.7077       0.1210       0.5558      50.8681       1.5117     -43.7500   10870.0000
  270.5100       9.8750       2.7749      -0.6918      72.8000      70.3786      60.5200      98.6000       0.1210       0.5604      37.5986       1.4996     -43.8750   10890.0000
  270.3576       9.8750       2.7752      -0.6917      73.2000      74.4496      60.5200      22.5229       0.1211       0.5926      45.2361       1.4890     -43.7500   10861.0000
  270.2052       9.8750       2.7746      -0.6844      73.3000      76.3846      60.5200      24.1500       0.1209       0.5919      41.7539       1.4931     -43.7500   10859.0000
  270.0528       9.8750       2.7746      -0.6613      73.3000      75.4096      60.5200      13.4383       0.1216       0.5679      46.0981       1.5261     -43.4375   10852.0000
  269.9004       9.8750       2.7727      -0.6383      73.3000      73.6790      60.5200      98.6000       0.1209       0.5485      37.6352       1.5700     -43.4375   10823.0000
  269.7480       9.8750       2.7749      -0.6212      73.3000      75.3552      60.5200      13.1088       0.1207       0.5570      34.0115       1.6115     -43.5000   10840.0000
  269.5956       9.8750       2.7752      -0.5933      66.5000      78.7048      60.5200      11.5811       0.1208       0.5647      34.6706       1.6560     -43.4375   10830.0000
  269.4432       9.8750       2.7746      -0.5688      73.6000      81.0341      60.5200      29.5872       0.1209       0.5842      29.6911       1.7066     -43.3750   10787.0000
  269.2908       9.8750       2.7746      -0.5477      73.7000      82.3307      60.5200      16.3277       0.1212       0.5725      31.0579       1.7559     -43.6250   10777.0000
  269.1384       9.8750       2.7755      -0.5206      73.8000      84.3644      60.5200      16.7910       0.1208       0.6176      26.3673       1.8129     -43.8750   10751.0000
  268.9860       9.8750       2.7746      -0.4962      67.2000      90.0833      60.5200      12.5595       0.1208       0.6388      30.2350       1.8601     -44.1250   10724.0000
  268.8336       9.8750       2.7746      -0.4743      59.7000      90.7024      60.5200      33.0400       0.1208       0.6205      32.7167       1.9009     -44.1875   10715.0000
  268.6812       9.8750       2.7749      -0.4496      58.9000      85.3021      60.5200      20.4760       0.1208       0.5909      37.5379       1.9470     -44.2500   10731.0000
  268.5288       9.8750       2.7729      -0.4305      58.6000      81.2348      60.5200      16.8941       0.1216       0.5590      46.3220       1.9837     -44.3750   10721.0000
  268.3764       9.8750       2.7746      -0.4142      58.1000      87.3806      60.5200      71.5836       0.1214       0.5531      48.7333       2.0116     -44.2500   10710.0000
  268.2240       9.8750       2.7749      -0.3938      57.6000      92.0631      60.5200      18.0828       0.1217       0.5792      51.0933       2.0459     -44.1875   10729.0000
  268.0716       9.8750       2.7749      -0.3905      57.0000      94.4634      60.5200      62.8309       0.1210       0.5567      39.0778       2.0428     -44.2500   10705.0000
  267.9192       9.8750       2.7749      -0.3834      56.9000      89.1307      60.5200      24.5187       0.1208       0.5770      37.7487       2.0436     -44.2500   10693.0000
