~VERSION INFORMATION
VERS.           2.0   :CWLS Log ASCII Standard - VERSION 2.0
WRAP.           NO    :One Line per depth step
PROD.  Schlumberger   :LAS Producer
PROG.  DLIS to ASCII 11C0-305                          :LAS Program name and version
CREA.        2004/09/30 14:49                          :LAS Creation date {YYYY/MM/DD hh:mm}
SOURCE.     DLL_SONIC_LDL_CNL_035PUP.DLIS              :DLIS File Name
FILE-ID.     DLL_SONIC_LDL_CNL_035PUP                  :File Identification Number
#--------------------------------------------------
~WELL INFORMATION
#MNEM.UNIT      DATA             DESCRIPTION
#---- ------ --------------   -----------------------------
STRT .M      1817.6748       :START DEPTH     
STOP .M        25.7556       :STOP DEPTH     
STEP .M        -0.1524       :STEP     
NULL .          -999.25      :NULL VALUE
COMP .        GNPOC                                    :COMPANY
WELL .        Haraz-2                                  :WELL
FLD  .        Block 4                                  :FIELD
LOC  .                                                 :LOCATION
CNTY .        Roll'n 15                                :COUNTY
STAT .        Sudan                                    :STATE
CTRY .        Sudan                                    :COUNTRY
API  .                                                 :API NUMBER
UWI  .                                                 :UNIQUE WELL ID
DATE .        29-Sep-2004                              :LOG DATE {DD-MMM-YYYY}
SRVC .        Schlumberger                             :SERVICE COMPANY
LATI .DEG     10 31' 53.73" N                          :LATITUDE
LONG .DEG     28 05' 10.61" E                          :LONGITUDE
GDAT .                                                 :GeoDetic Datum
RMS  .OHM.M   0.0723                                   :MUD RESISTIVITY @ 83.0 DEGF
RMFS .OHM.M   0.0512                                   :MUD FILTRATE RESISTIVITY @ 83.6 DEGF
RMCS .OHM.M   0.1592                                   :MUD CAKE RESISTIVIT @ 82.90 DEGF
BSAL .PPM     35500                                    :BORE HOLE SALINITY
MRT  .DEGF    168                                      :MAXIMUM RECORDED TEMPERATURE
HOLV .M3      54.73                                    :HOLE VOLUME
CEMV .M3      31.90                                    :CEMENT VOLUME
#-----------------------------------------------------------------------------
~PARAMETER INFORMATION
#MNEM.UNIT    VALUE                      DESCRIPTION
#---- -----   --------------------       ------------------------
RUN  .          1                        :RUN NUMBER
PDAT .        MSL                        :Permanent Datum
EPD  .M           0.000000               :Elevation of Permanent Datum above Mean Sea Level
EPD  .M           0.000000               :Elevation of tool zero above Mean Sea Level
LMF  .          KB                       :Logging Measured From (Name of Logging Elevation Reference)
APD  .M         422.820007               :Elevation of Depth Reference (LMF) above Permanent Datum
#-----------------------------------------------------------------------------
~CURVE INFORMATION
#MNEM.UNIT   API CODE                                  DESCRIPTION
#---- -----  --------                                  -----------------------
DEPT .M                                                :DEPTH (BOREHOLE) {F10.4}
BS   .IN                                               :Bit Size {F13.4}
CALI .IN                                               :Caliper {F13.4}
DRHO .G/C3                                             :Bulk Density Correction {F13.4}
DT   .US/F                                             :Delta-T {F13.4}
GR   .GAPI                                             :Gamma Ray {F13.4}
LLD  .OHMM                                             :DEEP RESISTIVITY {F13.4}
LLS  .OHMM                                             :SHALLOW RESISTIVITY {F13.4}
MSFL .OHMM                                             :MSFL RESISTIVITY {F13.4}
NPHI .V/V                                              :Thermal Neutron Porosity (Ratio Method) {F13.4}
PEF  .                                                 :Photoelectric Factor {F13.4}
RHOB .G/C3                                             :Bulk Density {F13.4}
SP   .MV                                               :SP Shifted {F13.4}
TENS .LBF                                              :Cable Tension {F13.4}
#-----------------------------------------------------------------------------
# 
#     DEPT        BS           CALI         DRHO         DT           GR           LLD          LLS          MSFL         NPHI         PEF          RHOB         SP           TENS
#
~A  
# ...
  747.8268       9.8750       2.7501      -0.3387      51.9000      71.9392      60.5200      22.1494       0.1206       0.4923      42.4593       2.1274     -26.1250   10638.0000
  747.6744       9.8750       2.7501      -0.3427      52.0000      74.1552      60.5200      98.6000       0.1205       0.5298      32.4894       2.1256     -26.0625   10581.0000
  747.5220       9.8750       2.7516      -0.3546      51.8000      75.5686      60.5200      98.6000       0.1207       0.5267      38.9160       2.0984     -26.0000   10619.0000
  747.3696       9.8750       2.7500      -0.3591      51.8000      78.7693      60.5200      11.2372       0.1204       0.5422      43.0819       2.0959     -26.0625   10909.0000
  747.2172       9.8750       2.7502      -0.3520      52.1000      75.8152      60.5200      45.1737       0.1204       0.5491      51.5998       2.1123     -26.3750   10848.0000
  747.0648       9.8750       2.7504      -0.3374      52.2000      71.3046      60.5200      22.9105       0.1203       0.5802      46.1329       2.1522     -26.2500   10826.0000
  746.9124       9.8750       2.7519      -0.3245      52.0000      68.7049      60.5200      16.5478       0.1203       0.5584      48.4031       2.1867     -26.2500   10813.0000
  746.7600       9.8750       2.7494      -0.3195      51.7000      72.7723      60.5200      14.6239       0.1203       0.5615      33.8176       2.1904     -26.3750   10739.0000
  746.6076       9.8750       2.7504      -0.3182      51.8000      77.0673      60.5200      20.8487       0.1206       0.5582      34.6077       2.1681     -26.8125   10631.0000
  746.4552       9.8750       2.7522      -0.3210      51.9000      76.4662      60.5200      20.8472       0.1204       0.5582      32.8280       2.1514     -27.0625   10572.0000
  746.3028       9.8750       2.7504      -0.3194      51.7000      74.3129      60.5200      21.9314       0.1205       0.5159      37.9553       2.1621     -27.0625   10571.0000
  746.1504       9.8750       2.7501      -0.3156      51.8000      71.1481      60.5200      98.6000       0.1207       0.4819      37.6623       2.1702     -27.4375   10578.0000
  745.9980       9.8750       2.7501      -0.3101      51.9000      71.9753      60.5200       9.6671       0.1209       0.5126      44.3699       2.1676     -27.3750   10604.0000
  745.8456       9.8750       2.7513      -0.3098      51.6000      70.7994      60.5200      15.9127       0.1207       0.5382      54.2804       2.1516     -27.8125   10656.0000
  745.6932       9.8750       2.7501      -0.3051      51.9000      69.6508      60.5200      98.6000       0.1208       0.5289      40.5061       2.1399     -28.0000   10649.0000
  745.5408       9.8750       2.7501      -0.2973      51.6000      68.2255      60.5200      16.5799       0.1209       0.4983      27.1574       2.1399     -28.0625   10591.0000
  745.3884       9.8750       2.7504      -0.2845      51.4000      68.0679      60.5200      12.3422       0.1207       0.4452      26.6425       2.1617     -28.3750   10591.0000
  745.2360       9.8750       2.7522      -0.2662      51.7000      69.6062      60.5200      37.3822       0.1212       0.4743      33.2073       2.2140     -28.4375   10604.0000
  745.0836       9.8750       2.7504      -0.2590      51.6000      70.1058      60.5200      89.9567       0.1217       0.4774      41.5280       2.2368     -28.4375   10618.0000
  744.9312       9.8750       2.7501      -0.2695      51.6000      69.3055      60.5200       9.3164       0.1218       0.4966      31.5166       2.1954     -28.4375   10621.0000
  744.7788       9.8750       2.7494      -0.2816      51.8000      67.1073      60.5200      76.4155       0.1213       0.4861      29.6238       2.1413     -28.3125   10679.0000
  744.6264       9.8750       2.7522      -0.2981      51.4000      67.5648      60.5200      63.7590       0.1211       0.5036      28.2653       2.0899     -28.4375   10689.0000
  744.4740       9.8750       2.7489      -0.3093      51.4000      67.7999      60.5200      51.7596       0.1214       0.5276      29.6301       2.0713     -28.3750   10726.0000
  744.3216       9.8750       2.7504      -0.3136      51.7000      70.9551      60.5200      43.4920       0.1214       0.5422      28.1452       2.0694     -28.2500   10719.0000
  744.1692       9.8750       2.7525      -0.3093      49.5000      74.7011      60.5200      98.6000       0.1206       0.5455      30.7125       2.0841     -28.4375   10721.0000
  744.0168       9.8750       2.7501      -0.3081      52.8000      80.0134      60.5200      12.6404       0.1204       0.5344      40.1776       2.0938     -28.5000   10743.0000
  743.8644       9.8750       2.7501      -0.3064      50.5000      81.3293      60.5200      22.0838       0.1206       0.5344      39.9943       2.0967     -28.4375   10718.0000
  743.7120       9.8750       2.7501      -0.3052      50.6000      79.2948      60.5200      17.9047       0.1210       0.5672      38.3771       2.1004     -28.5000   10828.0000
  743.5596       9.8750       2.7504      -0.3126      50.5000      76.4794      60.5200      15.1184       0.1210       0.6279      31.0552       2.1010     -28.8125   10786.0000
  743.4072       9.8750       2.7504      -0.3367      51.1000      76.1903      60.5200      33.0790       0.1208       0.6008      28.3673       2.1419     -28.8750   10754.0000
  743.2548       9.8750       2.7507      -0.3568      50.8000      71.6076      60.5200      98.6000       0.1217       0.5814      27.6578       2.2353     -28.6250   10775.0000
  743.1024       9.8750       2.7507      -0.3419      46.7000      72.3886      60.5200      15.4843       0.1231       0.5051      29.2126       2.3965     -28.8750   10779.0000
  742.9500       9.8750       2.7501      -0.3705      53.9000      68.1318      60.5200      26.4345       0.1207       0.5599      32.1109       2.4003     -29.2500   10751.0000
  742.7976       9.8750       2.7501      -0.4644      54.3000      68.9846      60.5200      98.6000       0.1210       0.5886      43.3557       2.1455     -29.3125   10743.0000
  742.6452       9.8750       2.7501      -0.5068      45.6000      65.0933      60.5200      30.3582       0.1203       0.5941      40.2552       1.9743     -29.3750   10745.0000
  742.4928       9.8750       2.7501      -0.5274      45.2000      65.9593      60.5200      74.8527       0.1211       0.5631      41.6362       1.8763     -29.5000   10750.0000
  742.3404       9.8750       2.7504      -0.5463      52.7000      64.2691      60.5200      10.7104       0.1221       0.5236      43.4068       1.8747     -29.4375   10745.0000
  742.1880       9.8750       2.7525      -0.5501      46.7000      64.8672      60.5200      63.7689       0.1283       0.5492      46.4201       1.8996     -29.5625   10726.0000
  742.0356       9.8750       2.7491      -0.5468      50.2000      65.7165      60.5200      16.4219       0.1234       0.5503      52.4872       1.9240     -29.5625   10753.0000
  741.8832       9.8750       2.7504      -0.5489      52.1000      70.9106      60.5200      17.2712       0.1219       0.5261      44.1670       1.9334     -29.4375   10795.0000
  741.7308       9.8750       2.7501      -0.5478      52.6000      71.4720      60.5200      13.6014       0.1207       0.5013      46.3191       1.9251     -29.4375   10770.0000
  741.5784       9.8750       2.7501      -0.5475      52.5000      72.6278      60.5200      15.1429       0.1203       0.5132      41.0255       1.9173     -29.5000   10791.0000
  741.4260       9.8750       2.7522      -0.5427      52.7000      72.0627      60.5200      74.5139       0.1203       0.5282      43.1246       1.9089     -29.7500   10784.0000
  741.2736       9.8750       2.7489      -0.5376      83.2000      74.1551      60.5200      16.1591       0.1203       0.5578      42.5041       1.9062     -29.6875   10817.0000
  741.1212       9.8750       2.7504      -0.5179      70.3000      73.9584      60.5200      12.9958       0.1203       0.5414      46.4257       1.9279     -29.8125   10798.0000
