~VERSION INFORMATION
VERS.           2.0   :CWLS Log ASCII Standard - VERSION 2.0
WRAP.           NO    :One Line per depth step
PROD.  Schlumberger   :LAS Producer
PROG.  DLIS to ASCII 11C0-305                          :LAS Program name and version
CREA.        2004/09/30 14:49                          :LAS Creation date {YYYY/MM/DD hh:mm}
SOURCE.     DLL_SONIC_LDL_CNL_035PUP.DLIS              :DLIS File Name
FILE-ID.     DLL_SONIC_LDL_CNL_035PUP                  :File Identification Number
#--------------------------------------------------
~WELL INFORMATION
#MNEM.UNIT      DATA             DESCRIPTION
#---- ------ --------------   -----------------------------
STRT .M      1817.6748       :START DEPTH     
STOP .M        25.7556       :STOP DEPTH     
STEP .M        -0.1524       :STEP     
NULL .          -999.25      :NULL VALUE
COMP .        GNPOC                                    :COMPANY
WELL .        Haraz-2                                  :WELL
FLD  .        Block 4                                  :FIELD
LOC  .                                                 :LOCATION
CNTY .        Roll'n 15                                :COUNTY
STAT .        Sudan                                    :STATE
CTRY .        Sudan                                    :COUNTRY
API  .                                                 :API NUMBER
UWI  .                                                 :UNIQUE WELL ID
DATE .        29-Sep-2004                              :LOG DATE {DD-MMM-YYYY}
SRVC .        Schlumberger                             :SERVICE COMPANY
LATI .DEG     10 31' 53.73" N                          :LATITUDE
LONG .DEG     28 05' 10.61" E                          :LONGITUDE
GDAT .                                                 :GeoDetic Datum
RMS  .OHM.M   0.0723                                   :MUD RESISTIVITY @ 83.0 DEGF
RMFS .OHM.M   0.0512                                   :MUD FILTRATE RESISTIVITY @ 83.6 DEGF
RMCS .OHM.M   0.1592                                   :MUD CAKE RESISTIVIT @ 82.90 DEGF
BSAL .PPM     35500                                    :BORE HOLE SALINITY
MRT  .DEGF    168                                      :MAXIMUM RECORDED TEMPERATURE
HOLV .M3      54.73                                    :HOLE VOLUME
CEMV .M3      31.90                                    :CEMENT VOLUME
#-----------------------------------------------------------------------------
~PARAMETER INFORMATION
#MNEM.UNIT    VALUE                      DESCRIPTION
#---- -----   --------------------       ------------------------
RUN  .          1                        :RUN NUMBER
PDAT .        MSL                        :Permanent Datum
EPD  .M           0.000000               :Elevation of Permanent Datum above Mean Sea Level
EPD  .M           0.000000               :Elevation of tool zero above Mean Sea Level
LMF  .          KB                       :Logging Measured From (Name of Logging Elevation Reference)
APD  .M         422.820007               :Elevation of Depth Reference (LMF) above Permanent Datum
#-----------------------------------------------------------------------------
~CURVE INFORMATION
#MNEM.UNIT   API CODE                                  DESCRIPTION
#---- -----  --------                                  -----------------------
DEPT .M                                                :DEPTH (BOREHOLE) {F10.4}
BS   .IN                                               :Bit Size {F13.4}
CALI .IN                                               :Caliper {F13.4}
DRHO .G/C3                                             :Bulk Density Correction {F13.4}
DT   .US/F                                             :Delta-T {F13.4}
GR   .GAPI                                             :Gamma Ray {F13.4}
LLD  .OHMM                                             :DEEP RESISTIVITY {F13.4}
LLS  .OHMM                                             :SHALLOW RESISTIVITY {F13.4}
MSFL .OHMM                                             :MSFL RESISTIVITY {F13.4}
NPHI .V/V                                              :Thermal Neutron Porosity (Ratio Method) {F13.4}
PEF  .                                                 :Photoelectric Factor {F13.4}
RHOB .G/C3                                             :Bulk Density {F13.4}
SP   .MV                                               :SP Shifted {F13.4}
TENS .LBF                                              :Cable Tension {F13.4}
#-----------------------------------------------------------------------------
# 
#     DEPT        BS           CALI         DRHO         DT           GR           LLD          LLS          MSFL         NPHI         PEF          RHOB         SP           TENS
#
~A  
# ...
 1701.0888       9.8750       9.8255       0.0108      78.7000      46.2255      47.5829      29.8978       0.4448       0.1914       2.2541       2.2662    -103.5625    5371.0000
 1700.9364       9.8750       9.8259       0.0086      79.1000      49.4420      50.8797      32.0063       0.4501       0.1917       2.1972       2.2605    -102.3750    5337.0000
 1700.7840       9.8750       9.8237       0.0065      79.4000      48.8943      62.0511      39.0696       0.4260       0.1897       2.1760       2.2546    -102.0000    5317.0000
 1700.6316       9.8750       9.8207       0.0059      79.7000      47.8605      92.6638      55.4363       0.4261       0.1909       2.1457       2.2509    -102.0000    5306.0000
 1700.4792       9.8750       9.8266       0.0006      80.1000      48.7096     117.8546      67.3592       0.4485       0.1893       2.1308       2.2498    -101.4375    5303.0000
 1700.3268       9.8750       9.8207       0.0025      79.7000      50.1073     124.9444      70.6187       0.4622       0.1915       2.1593       2.2555    -100.3125    5289.0000
 1700.1744       9.8750       9.8218      -0.0001      80.0000      50.7193     129.0026      71.1521       0.4946       0.1783       2.1317       2.2554    -100.3125    5293.0000
 1700.0220       9.8750       9.8229       0.0006      80.0000      48.5676     137.9429      73.4157       0.5011       0.1757       2.0634       2.2528    -100.4375    5297.0000
 1699.8696       9.8750       9.8229      -0.0005      79.9000      48.4606     152.4463      79.6846       0.5902       0.1820       1.9957       2.2491    -100.1250    5285.0000
 1699.7172       9.8750       9.8188       0.0017      79.3000      47.8187     169.1825      88.9173       0.6557       0.1860       2.0239       2.2573     -99.3750    5309.0000
 1699.5648       9.8750       9.8156       0.0019      78.8000      48.6865     191.8540     103.9909       0.7391       0.1846       2.0931       2.2641     -98.6250    5297.0000
 1699.4124       9.8750       9.8116       0.0026      77.2000      44.6672     222.6542     124.8771       0.8948       0.1700       2.0374       2.2666     -98.8125    5294.0000
 1699.2600       9.8750       9.8130       0.0007      77.1000      46.5929     269.3304     155.7563       1.2519       0.1602       2.0130       2.2559     -99.1875    5301.0000
 1699.1076       9.8750       9.8138       0.0031      78.2000      44.4590     291.9180     176.3734       2.4683       0.1583       2.0125       2.2627     -98.7500    5304.0000
 1698.9552       9.8750       9.8142       0.0057      79.6000      52.5371     145.5737      86.8277       3.3987       0.1790       2.0833       2.2716     -97.3750    5295.0000
 1698.8028       9.8750       9.8119       0.0048      81.4000      56.9593      81.9090      54.4079       3.1765       0.2149       2.1179       2.2725     -96.4375    5302.0000
 1698.6504       9.8750       9.8065       0.0011      83.6000      60.4917      72.4187      53.9399       0.9988       0.2249       2.1508       2.2354     -96.1875    5317.0000
 1698.4980       9.8750       9.8058      -0.0037      84.6000      61.3298      46.1988      31.1465       0.4608       0.2241       2.0982       2.2175     -96.1250    5311.0000
 1698.3456       9.8750       9.8041      -0.0022      85.2000      60.3312      20.2232      12.2298       4.0736       0.2080       2.1049       2.2363     -96.3750    5297.0000
 1698.1932       9.8750       9.8072      -0.0001      83.2000      60.9730      14.9450       9.1105       1.3475       0.2008       2.1430       2.2787     -97.0625    5311.0000
 1698.0408       9.8750       9.8026       0.0001      82.1000      53.7156      13.6440       8.4435       0.4725       0.1889       2.1550       2.2850     -97.8750    5301.0000
 1697.8884       9.8750       9.8043      -0.0021      79.4000      51.6900      14.0758       8.5367       0.4199       0.1772       2.0562       2.2653     -97.8125    5303.0000
 1697.7360       9.8750       9.8065      -0.0024      79.8000      48.5560      22.7539      11.5433       0.4521       0.1807       1.9919       2.2583     -97.6875    5316.0000
 1697.5836       9.8750       9.8036       0.0001      79.6000      49.7329      53.2298      17.3376       0.4899       0.1823       2.0025       2.2679     -97.2500    5301.0000
 1697.4312       9.8750       9.8065      -0.0002      79.5000      49.1978      98.5432      20.8200       0.4925       0.1894       1.9957       2.2745     -97.6250    5310.0000
 1697.2788       9.8750       9.8029       0.0017      79.6000      47.2721     118.3888      21.2762       0.4869       0.1832       1.9724       2.2746     -98.9375    5313.0000
 1697.1264       9.8750       9.8072       0.0035      78.0000      44.9237     121.1540      20.1728       0.5017       0.1811       1.9644       2.2789     -99.2500    5308.0000
 1696.9740       9.8750       9.8036       0.0064      78.5000      43.5323     114.5265      17.5469       0.4987       0.1761       2.0152       2.2818    -100.2500    5306.0000
 1696.8216       9.8750       9.8036       0.0065      78.6000      45.3451     105.3639      15.5210       0.5290       0.1794       2.0069       2.2901    -101.8125    5310.0000
 1696.6692       9.8750       9.8072       0.0071      78.5000      49.0843      99.9426      14.3155       0.5453       0.1757       2.0886       2.2921    -115.9375    5314.0000
 1696.5168       9.8750       9.8034       0.0032      78.9000      52.1882      94.0882      12.7928       0.5484       0.1780       2.0666       2.2866    -143.1250    5301.0000
 1696.3644       9.8750       9.8058       0.0023      78.8000      52.5388      91.3691      12.2425       0.5769       0.1713       2.0581       2.2859    -120.0000    5327.0000
 1696.2120       9.8750       9.8043      -0.0007      78.7000      52.9371      95.3554      12.5262       0.6155       0.1692       2.0680       2.2860    -137.1875    5324.0000
 1696.0596       9.8750       9.8057      -0.0032      79.3000      50.5824      99.6540      13.5690       0.6577       0.1702       2.1023       2.2863    -109.7500    5309.0000
 1695.9072       9.8750       9.8041      -0.0022      79.8000      52.7162     109.9178      16.9151       0.7131       0.1832       2.2551       2.2819    -111.5000    5320.0000
 1695.7548       9.8750       9.8065      -0.0044      79.8000      50.5705     136.4560      23.0351       0.8662       0.1904       2.2150       2.2668    -132.0000    5317.0000
 1695.6024       9.8750       9.8034      -0.0039      80.2000      50.2494     167.5133      29.8738       1.1036       0.1860       2.2332       2.2578    -143.1875    5317.0000
 1695.4500       9.8750       9.8054      -0.0025      80.0000      46.6178     188.6190      37.3254       1.8199       0.1742       2.1318       2.2515    -134.0625    5307.0000
 1695.2976       9.8750       9.8065      -0.0015      81.2000      45.6014     103.5377      24.7813       3.7116       0.1788       2.1493       2.2462    -103.1250    5328.0000
 1695.1452       9.8750       9.7830      -0.0025      80.7000      46.3506      55.1414      13.6709       5.4364       0.1895       2.0938       2.2517    -104.0000    5310.0000
 1694.9928       9.8750       9.7839      -0.0002      81.2000      49.5602      42.3229       9.7449       1.0300       0.2098       2.0901       2.2620    -120.3125    5303.0000
 1694.8404       9.8750       9.7864       0.0006      80.9000      54.2575      38.1484       7.9662       0.4577       0.2129       2.0610       2.2744    -145.3125    5320.0000
 1694.6880       9.8750       9.7868      -0.0044      79.3000      57.2404      39.9486       7.6792       0.5065       0.2087       2.0681       2.2732    -143.1250    5308.0000
 1694.5356       9.8750       9.7963      -0.0068      79.5000      58.4173      59.9289      11.8848       0.5248       0.1925       2.0124       2.2796    -137.5000    5304.0000
 1694.3832       9.8750       9.8010      -0.0097      79.0000      55.5275      90.9700      22.1136       0.4821       0.1907       2.0500       2.2904    -138.5000    5311.0000
