~VERSION INFORMATION
VERS.           2.0   :CWLS Log ASCII Standard - VERSION 2.0
WRAP.           NO    :One Line per depth step
PROD.  Schlumberger   :LAS Producer
PROG.  DLIS to ASCII 11C0-305                          :LAS Program name and version
CREA.        2004/09/30 14:49                          :LAS Creation date {YYYY/MM/DD hh:mm}
SOURCE.     DLL_SONIC_LDL_CNL_035PUP.DLIS              :DLIS File Name
FILE-ID.     DLL_SONIC_LDL_CNL_035PUP                  :File Identification Number
#--------------------------------------------------
~WELL INFORMATION
#MNEM.UNIT      DATA             DESCRIPTION
#---- ------ --------------   -----------------------------
STRT .M      1817.6748       :START DEPTH     
STOP .M        25.7556       :STOP DEPTH     
STEP .M        -0.1524       :STEP     
NULL .          -999.25      :NULL VALUE
COMP .        GNPOC                                    :COMPANY
WELL .        Haraz-2                                  :WELL
FLD  .        Block 4                                  :FIELD
LOC  .                                                 :LOCATION
CNTY .        Roll'n 15                                :COUNTY
STAT .        Sudan                                    :STATE
CTRY .        Sudan                                    :COUNTRY
API  .                                                 :API NUMBER
UWI  .                                                 :UNIQUE WELL ID
DATE .        29-Sep-2004                              :LOG DATE {DD-MMM-YYYY}
SRVC .        Schlumberger                             :SERVICE COMPANY
LATI .DEG     10 31' 53.73" N                          :LATITUDE
LONG .DEG     28 05' 10.61" E                          :LONGITUDE
GDAT .                                                 :GeoDetic Datum
RMS  .OHM.M   0.0723                                   :MUD RESISTIVITY @ 83.0 DEGF
RMFS .OHM.M   0.0512                                   :MUD FILTRATE RESISTIVITY @ 83.6 DEGF
RMCS .OHM.M   0.1592                                   :MUD CAKE RESISTIVIT @ 82.90 DEGF
BSAL .PPM     35500                                    :BORE HOLE SALINITY
MRT  .DEGF    168                                      :MAXIMUM RECORDED TEMPERATURE
HOLV .M3      54.73                                    :HOLE VOLUME
CEMV .M3      31.90                                    :CEMENT VOLUME
#-----------------------------------------------------------------------------
~PARAMETER INFORMATION
#MNEM.UNIT    VALUE                      DESCRIPTION
#---- -----   --------------------       ------------------------
RUN  .          1                        :RUN NUMBER
PDAT .        MSL                        :Permanent Datum
EPD  .M           0.000000               :Elevation of Permanent Datum above Mean Sea Level
EPD  .M           0.000000               :Elevation of tool zero above Mean Sea Level
LMF  .          KB                       :Logging Measured From (Name of Logging Elevation Reference)
APD  .M         422.820007               :Elevation of Depth Reference (LMF) above Permanent Datum
#-----------------------------------------------------------------------------
~CURVE INFORMATION
#MNEM.UNIT   API CODE                                  DESCRIPTION
#---- -----  --------                                  -----------------------
DEPT .M                                                :DEPTH (BOREHOLE) {F10.4}
BS   .IN                                               :Bit Size {F13.4}
CALI .IN                                               :Caliper {F13.4}
DRHO .G/C3                                             :Bulk Density Correction {F13.4}
DT   .US/F                                             :Delta-T {F13.4}
GR   .GAPI                                             :Gamma Ray {F13.4}
LLD  .OHMM                                             :DEEP RESISTIVITY {F13.4}
LLS  .OHMM                                             :SHALLOW RESISTIVITY {F13.4}
MSFL .OHMM                                             :MSFL RESISTIVITY {F13.4}
NPHI .V/V                                              :Thermal Neutron Porosity (Ratio Method) {F13.4}
PEF  .                                                 :Photoelectric Factor {F13.4}
RHOB .G/C3                                             :Bulk Density {F13.4}
SP   .MV                                               :SP Shifted {F13.4}
TENS .LBF                                              :Cable Tension {F13.4}
#-----------------------------------------------------------------------------
# 
#     DEPT        BS           CALI         DRHO         DT           GR           LLD          LLS          MSFL         NPHI         PEF          RHOB         SP           TENS
#
~A  
# ...
  864.4128       9.8750      10.0547      -0.7745      51.9000      69.1346   19263.4199      42.3805       1.4168       0.4937      71.6635       1.5816      -4.1875   15131.0000
  864.2604       9.8750      10.0531      -0.7891      52.0000      70.6689   15292.0000      98.6000       1.4295       0.5192      70.0723       1.5638      -3.7500   15305.0000
  864.1080       9.8750      10.0513      -0.8003      51.9000      71.0690   29336.4023      47.9692       2.7511       0.5309      75.5123       1.5597      -3.8125   15222.0000
  863.9556       9.8750      10.0525      -0.8134      51.8000      74.8632   28619.4863      20.3409       1.4397       0.5019      82.0963       1.5663      -3.5000   15115.0000
  863.8032       9.8750      10.0513      -0.8205      51.6000      71.8826   18294.4258      98.6000       0.8592       0.5252     109.4072       1.5670      -3.3750   15156.0000
  863.6508       9.8750      10.0557      -0.8327      51.6000      76.1788   28866.3594      24.5317       3.4916       0.5174      89.8246       1.5550      -2.8125   15124.0000
  863.4984       9.8750      10.0492      -0.8268      51.7000      70.0013   21591.6719      15.6779       1.5551       0.5181      68.7180       1.5627      -2.7500   15204.0000
  863.3460       9.8750      10.0531      -0.8154      51.8000      71.4273   23050.7715      98.6000       5.9861       0.4846      57.3656       1.5961      -2.3125   15115.0000
  863.1936       9.8750      10.0526      -0.7983      51.8000      67.2961   24650.9316      77.3549       7.4871       0.5040      72.5906       1.6295      -1.7500   15206.0000
  863.0412       9.8750      10.0512      -0.7840      51.9000      68.1339   18755.4238      98.6000       2.7155       0.4897      63.9106       1.6493      -1.3125   15173.0000
  862.8888       9.8750      10.0540      -0.7666      52.2000      68.7945   19376.5234      47.7761       0.9536       0.5076      78.3945       1.6653      -1.0625   15263.0000
  862.7364       9.8750      10.0492      -0.7582      52.2000      72.9256   29695.7930      12.2449       1.3461       0.4618      85.4980       1.6821      -0.8750   15282.0000
  862.5840       9.8750      10.0513      -0.7479      52.0000      74.8859   23329.4648      76.5502       3.0420       0.4988     198.8898       1.7185      -0.5625   15320.0000
  862.4316       9.8750      10.0525      -0.7379      52.0000      77.8142   26371.4121      21.1302       1.1196       0.4551     286.1492       1.7497      -0.1875   15374.0000
  862.2792       9.8750      10.0526      -0.7442      51.9000      74.4742   17131.3926      33.5202       0.9078       0.4693     236.0722       1.7478       0.0625   15474.0000
  862.1268       9.8750      10.0512      -0.7522      51.9000      70.8296   25844.4883      21.5499       1.2461       0.4272      85.1859       1.7289      -0.3750   15394.0000
  861.9744       9.8750      10.0526      -0.7566      52.0000      66.8840   17050.0723      18.7415       0.8908       0.4460      84.1515       1.7106      -7.3125   15305.0000
  861.8220       9.8750      10.0526      -0.7468      52.1000      67.2333   24627.7930      13.0866       0.9680       0.4349      96.6535       1.7287      -1.6250   15158.0000
  861.6696       9.8750      10.0512      -0.7465      51.9000      69.0787   16367.7568      28.9323       4.1748       0.4305     374.3600       1.7328      -6.0625   15138.0000
  861.5172       9.8750      10.0525      -0.7273      52.2000      68.8274   17058.0820      79.9585       3.5564       0.3983     118.2050       1.7595      -0.7500   15068.0000
  861.3648       9.8750      10.0513      -0.7126      52.0000      67.2445   18102.8242      45.4981      11.9167       0.3886      62.6881       1.7703       3.4375   15042.0000
  861.2124       9.8750      10.0525      -0.7002      52.2000      67.9113   24726.0625      38.2291       1.6587       0.3906      68.0099       1.7958       2.1875   15004.0000
  861.0600       9.8750      10.0500      -0.6897      52.4000      69.1700   24123.3359      41.7475       2.3762       0.3893     122.1369       1.8221       1.6250   15123.0000
  860.9076       9.8750      10.0557      -0.6768      52.1000      68.3604   12811.2178      98.6000       1.9304       0.4009      99.2404       1.8635       1.6875   14986.0000
  860.7552       9.8750      10.0506      -0.6688      52.0000      69.9262   15488.7461      20.5795       1.3762       0.3725      58.9696       1.8869       2.0000   14962.0000
  860.6028       9.8750      10.0544      -0.6685      52.0000      71.6792   21281.2305      98.6000       1.8077       0.4161      44.0488       1.9023       2.0000   14948.0000
  860.4504       9.8750      10.0533      -0.6616      51.9000      72.0481   21858.6133      31.6971       1.9684       0.4235      52.4511       1.9169       2.5625   14900.0000
  860.2980       9.8750      10.0525      -0.6546      51.9000      70.2492   13882.5078       8.4543       1.0751       0.4749      45.0203       1.9464       2.6875   14804.0000
  860.1456       9.8750      10.0513      -0.6486      51.9000      68.6933   24610.2695      20.4525       0.8127       0.4604      40.6824       1.9745       2.9375   14893.0000
  859.9932       9.8750      10.1778      -0.6540      50.8000      68.0978   23088.2070      98.6000       1.1208       0.4462      35.2639       1.9806       3.4375   14889.0000
  859.8408       9.8750      10.3058      -0.6477      53.6000      72.3984   14971.0137      27.2320       2.0361       0.4042      30.0288       1.9990       3.6250   14881.0000
  859.6884       9.8750      10.3078      -0.6490      52.7000      71.7589   12228.9639      13.1285       1.1687       0.3842      32.8377       1.9950       3.6875   14984.0000
  859.5360       9.8750      10.2902      -0.6409      51.7000      72.2347   19441.9707      13.9305       1.4225       0.3722      32.8005       2.0070       3.8750   14919.0000
  859.3836       9.8750      10.2853      -0.6451      52.1000      70.8822   23532.7695      17.1815       1.5561       0.3722      40.2599       1.9794       3.9375   15098.0000
  859.2312       9.8750      10.2561      -0.6704      52.3000      72.0124   16300.4316      98.6000       4.3464       0.3776      43.3057       1.9644       3.9375   15032.0000
  859.0788       9.8750      10.2261      -0.7684      50.6000      72.1221   19941.6465      33.0941       2.0025       0.3780      85.3063       1.9046       4.3125   14916.0000
  858.9264       9.8750      10.1823      -0.8673      53.1000      70.9624   10394.1270      56.8312       3.4392       0.4096    -975.2368       1.9348       4.2500   14912.0000
  858.7740       9.8750      10.1254      -0.9142      54.3000      70.0582   21076.8789      14.8555       1.5084       0.4136    -256.9737       2.0219       5.0625   14759.0000
  858.6216       9.8750      10.0512      -0.9019      54.8000      71.0047   18320.8379      30.7411       1.3883       0.4228    -928.6049       2.1439       4.6875   14687.0000
  858.4692       9.8750      10.0404      -0.9341      55.1000      71.4760   13220.4912      98.6000       0.9974       0.4291     126.6647       1.9660       5.0000   14672.0000
  858.3168       9.8750      10.0390      -0.8669      45.8000      73.1714   15532.5313      34.3595       1.5790       0.4425      39.9547       1.8563       5.0625   14955.0000
  858.1644       9.8750      10.0370      -0.7931      50.7000      77.2615   15890.9512      67.2333      22.6204       0.4459      44.8430       1.8070       5.2500   14904.0000
  858.0120       9.8750      10.0351      -0.7536      51.5000      79.3062   14128.9150      10.9252       0.6774       0.4169      78.6681       1.8043       5.0625   14907.0000
  857.8596       9.8750      10.0404      -0.7555      51.8000      77.8941   21699.3047      19.3934       1.1769       0.4287     174.6512       1.7909       5.1875   14906.0000
  857.7072       9.8750      10.0377      -0.7523      51.6000      75.3696   25692.1914      98.6000       0.9295       0.4317     134.7798       1.7706       5.5625   14913.0000
