~VERSION INFORMATION
VERS.           2.0   :CWLS Log ASCII Standard - VERSION 2.0
WRAP.           NO    :One Line per depth step
PROD.  Schlumberger   :LAS Producer
PROG.  DLIS to ASCII 11C0-305                          :LAS Program name and version
CREA.        2004/09/30 14:49                          :LAS Creation date {YYYY/MM/DD hh:mm}
SOURCE.     DLL_SONIC_LDL_CNL_035PUP.DLIS              :DLIS File Name
FILE-ID.     DLL_SONIC_LDL_CNL_035PUP                  :File Identification Number
#--------------------------------------------------
~WELL INFORMATION
#MNEM.UNIT      DATA             DESCRIPTION
#---- ------ --------------   -----------------------------
STRT .M      1817.6748       :START DEPTH     
STOP .M        25.7556       :STOP DEPTH     
STEP .M        -0.1524       :STEP     
NULL .          -999.25      :NULL VALUE
COMP .        GNPOC                                    :COMPANY
WELL .        Haraz-2                                  :WELL
FLD  .        Block 4                                  :FIELD
LOC  .                                                 :LOCATION
CNTY .        Roll'n 15                                :COUNTY
STAT .        Sudan                                    :STATE
CTRY .        Sudan                                    :COUNTRY
API  .                                                 :API NUMBER
UWI  .                                                 :UNIQUE WELL ID
DATE .        29-Sep-2004                              :LOG DATE {DD-MMM-YYYY}
SRVC .        Schlumberger                             :SERVICE COMPANY
LATI .DEG     10 31' 53.73" N                          :LATITUDE
LONG .DEG     28 05' 10.61" E                          :LONGITUDE
GDAT .                                                 :GeoDetic Datum
RMS  .OHM.M   0.0723                                   :MUD RESISTIVITY @ 83.0 DEGF
RMFS .OHM.M   0.0512                                   :MUD FILTRATE RESISTIVITY @ 83.6 DEGF
RMCS .OHM.M   0.1592                                   :MUD CAKE RESISTIVIT @ 82.90 DEGF
BSAL .PPM     35500                                    :BORE HOLE SALINITY
MRT  .DEGF    168                                      :MAXIMUM RECORDED TEMPERATURE
HOLV .M3      54.73                                    :HOLE VOLUME
CEMV .M3      31.90                                    :CEMENT VOLUME
#-----------------------------------------------------------------------------
~PARAMETER INFORMATION
#MNEM.UNIT    VALUE                      DESCRIPTION
#---- -----   --------------------       ------------------------
RUN  .          1                        :RUN NUMBER
PDAT .        MSL                        :Permanent Datum
EPD  .M           0.000000               :Elevation of Permanent Datum above Mean Sea Level
EPD  .M           0.000000               :Elevation of tool zero above Mean Sea Level
LMF  .          KB                       :Logging Measured From (Name of Logging Elevation Reference)
APD  .M         422.820007               :Elevation of Depth Reference (LMF) above Permanent Datum
#-----------------------------------------------------------------------------
~CURVE INFORMATION
#MNEM.UNIT   API CODE                                  DESCRIPTION
#---- -----  --------                                  -----------------------
DEPT .M                                                :DEPTH (BOREHOLE) {F10.4}
BS   .IN                                               :Bit Size {F13.4}
CALI .IN                                               :Caliper {F13.4}
DRHO .G/C3                                             :Bulk Density Correction {F13.4}
DT   .US/F                                             :Delta-T {F13.4}
GR   .GAPI                                             :Gamma Ray {F13.4}
LLD  .OHMM                                             :DEEP RESISTIVITY {F13.4}
LLS  .OHMM                                             :SHALLOW RESISTIVITY {F13.4}
MSFL .OHMM                                             :MSFL RESISTIVITY {F13.4}
NPHI .V/V                                              :Thermal Neutron Porosity (Ratio Method) {F13.4}
PEF  .                                                 :Photoelectric Factor {F13.4}
RHOB .G/C3                                             :Bulk Density {F13.4}
SP   .MV                                               :SP Shifted {F13.4}
TENS .LBF                                              :Cable Tension {F13.4}
#-----------------------------------------------------------------------------
# 
#     DEPT        BS           CALI         DRHO         DT           GR           LLD          LLS          MSFL         NPHI         PEF          RHOB         SP           TENS
#
~A  
# ...
   34.5948       9.8750       2.7755      -0.6031    1234.9000      63.4365      60.5200      31.3035       0.1214       0.5173      45.9744       1.9010     -75.4375    9480.0000
   34.4424       9.8750       2.7755      -0.6031    1234.9000      65.6004      60.5200      31.3035       0.1213       0.4800      45.9744       1.9010     -75.4375    9480.0000
   34.2900       9.8750       2.7755      -0.6031    1234.9000      67.2520      60.5200      31.3035       0.1214       0.4800      45.9744       1.9010     -75.4375    9480.0000
   34.1376       9.8750       2.7755      -0.6031    1234.9000      66.9979      60.5200      31.3035       0.1214       0.4800      45.9744       1.9010     -75.4375    9480.0000
   33.9852       9.8750       2.7755      -0.6031    1234.9000      68.0162      60.5200      31.3035       0.1213       0.4800      45.9744       1.9010     -75.4375    9480.0000
   33.8328       9.8750       2.7755      -0.6031    1234.9000      67.9966      60.5200      31.3035       0.1214       0.4800      45.9744       1.9010     -75.5000    9480.0000
   33.6804       9.8750       2.7755      -0.6031    1234.9000      68.3777      60.5200      31.3035       0.1213       0.4800      45.9744       1.9010     -75.5625    9480.0000
   33.5280       9.8750       2.7755      -0.6031    1234.9000      65.3825      60.5200      31.3035       0.1214       0.4800      45.9744       1.9010     -75.5000    9480.0000
   33.3756       9.8750       2.7755      -0.6031    1234.9000      61.9895      60.5200      31.3035       0.1214       0.4800      45.9744       1.9010     -75.4375    9480.0000
   33.2232       9.8750       2.7755      -0.6031    1234.9000      61.7561      60.5200      31.3035       0.1213       0.4800      45.9744       1.9010     -75.3750    9480.0000
   33.0708       9.8750       2.7755      -0.6031    1234.9000      62.2924      60.5200      31.3035       0.1214       0.4800      45.9744       1.9010     -75.5000    9480.0000
   32.9184       9.8750       2.7755      -0.6031    1234.9000      59.6371      60.5200      31.3035       0.1214       0.4800      45.9744       1.9010     -75.7500    9480.0000
   32.7660       9.8750       2.7755      -0.6031    1234.9000      56.6410      60.5200      31.3035       0.1225       0.4800      45.9744       1.9010     -75.8125    9480.0000
   32.6136       9.8750       2.7755      -0.6031    1234.9000      53.9907      60.5200      31.3035       0.1214       0.4800      45.9744       1.9010     -76.0625    9480.0000
   32.4612       9.8750       2.7755      -0.6031    1234.9000      54.3414      60.5200      31.3035       0.1214       0.4800      45.9744       1.9010     -76.1250    9480.0000
   32.3088       9.8750       2.7755      -0.6031    1234.9000      55.1943      60.5200      31.3035       0.1215       0.4800      45.9744       1.9010     -76.7500    9480.0000
   32.1564       9.8750       2.7755      -0.6031    1234.9000      55.1766      60.5200      31.3035       0.1215       0.4800      45.9744       1.9010     -77.1875    9480.0000
   32.0040       9.8750       2.7755      -0.6031    1234.9000      60.3856      60.5200      31.3035       0.1215       0.4800      45.9744       1.9010     -77.5000    9480.0000
   31.8516       9.8750       2.7755      -0.6031    1234.9000      58.7137      60.5200      31.3035       0.1215       0.4800      45.9744       1.9010     -77.4375    9480.0000
   31.6992       9.8750       2.7755      -0.6031    1234.9000      57.9684      60.5200      31.3035       0.1215       0.4800      45.9744       1.9010     -77.4375    9480.0000
   31.5468       9.8750       2.7755      -0.6031    1234.9000      56.4438      60.5200      31.3035       0.1215       0.4800      45.9744       1.9010     -77.6875    9480.0000
   31.3944       9.8750       2.7755      -0.6031    1234.9000      56.8079      60.5200      31.3035       0.1215       0.4800      45.9744       1.9010     -77.6250    9480.0000
   31.2420       9.8750       2.7755      -0.6031    1234.9000      56.3509      60.5200      31.3035       0.1215       0.4800      45.9744       1.9010     -77.8125    9480.0000
   31.0896       9.8750       2.7755      -0.6031    1234.9000      55.7341      60.5200      31.3035       0.1215       0.4800      45.9744       1.9010     -77.8750    9480.0000
   30.9372       9.8750       2.7755      -0.6031    1234.9000      55.4708      60.5200      31.3035       0.1215       0.4800      45.9744       1.9010     -78.0000    9480.0000
   30.7848       9.8750       2.7755      -0.6031    1234.9000      58.1087      60.5200      31.3035       0.1215       0.4800      45.9744       1.9010     -78.0000    9480.0000
   30.6324       9.8750       2.7755      -0.6031    1234.9000      54.9141      60.5200      31.3035       0.1215       0.4800      45.9744       1.9010     -78.1250    9480.0000
   30.4800       9.8750       2.7755      -0.6031    1234.9000      55.2902      60.5200      31.3035       0.1215       0.4800      45.9744       1.9010     -78.3750    9480.0000
   30.3276       9.8750       2.7755      -0.6031    1234.9000      53.3464      60.5200      31.3035       0.1215       0.4800      45.9744       1.9010     -78.2500    9480.0000
   30.1752       9.8750       2.7755      -0.6031    1234.9000      56.6682      60.5200      31.3035       0.1215       0.4800      45.9744       1.9010     -78.1250    9480.0000
   30.0228       9.8750       2.7755      -0.6031    1234.9000      56.1913      60.5200      31.3035       0.1215       0.4800      45.9744       1.9010     -78.2500    9480.0000
   29.8704       9.8750       2.7755      -0.6031    1234.9000      55.9372      60.5200      31.3035       0.1215       0.4800      45.9744       1.9010     -78.4375    9480.0000
   29.7180       9.8750       2.7755      -0.6031    1234.9000      56.3237      60.5200      31.3035       0.1215       0.4800      45.9744       1.9010     -78.4375    9480.0000
   29.5656       9.8750       2.7755      -0.6031    1234.9000      59.0138      60.5200      31.3035       0.1215       0.4800      45.9744       1.9010     -78.5000    9480.0000
   29.4132       9.8750       2.7755      -0.6031    1234.9000      61.9359      60.5200      31.3035       0.1215       0.4800      45.9744       1.9010     -78.4375    9480.0000
   29.2608       9.8750       2.7755      -0.6031    1234.9000      62.6744      60.5200      31.3035       0.1215       0.4800      45.9744       1.9010     -78.6250    9480.0000
   29.1084       9.8750       2.7755      -0.6031    1234.9000      58.7126      60.5200      31.3035       0.1215       0.4800      45.9744       1.9010     -78.8125    9480.0000
   28.9560       9.8750       2.7755      -0.6031    1234.9000      56.8248      60.5200      31.3035       0.1215       0.4800      45.9744       1.9010     -79.1875    9480.0000
   28.8036       9.8750       2.7755      -0.6031    1234.9000      50.3441      60.5200      31.3035       0.1215       0.4800      45.9744       1.9010     -79.6250    9480.0000
   28.6512       9.8750       2.7755      -0.6031    1234.9000      48.5496      60.5200      31.3035       0.1215       0.4800      45.9744       1.9010     -79.8125    9480.0000
   28.4988       9.8750       2.7755      -0.6031    1234.9000      45.1308      60.5200      31.3035       0.1215       0.4800      45.9744       1.9010     -79.8750    9480.0000
   28.3464       9.8750       2.7755      -0.6031    1234.9000      47.2917      60.5200      31.3035       0.1215       0.4800      45.9744       1.9010     -80.1875    9480.0000
   28.1940       9.8750       2.7755      -0.6031    1234.9000      47.2917      60.5200      31.3035       0.1215       0.4800      45.9744       1.9010     -80.3125    9480.0000
   28.0416       9.8750       2.7755      -0.6031    1234.9000      48.1672      60.5200      31.3035       0.1215       0.4800      45.9744       1.9010     -80.6875    9480.0000
   27.8892       9.8750       2.7755      -0.6031    1234.9000      48.4370      60.5200      31.3035       0.1215       0.4800      45.9744       1.9010     -80.8750    9480.0000
