~VERSION INFORMATION
VERS.           2.0   :CWLS Log ASCII Standard - VERSION 2.0
WRAP.           NO    :One Line per depth step
PROD.  Schlumberger   :LAS Producer
PROG.  DLIS to ASCII 11C0-305                          :LAS Program name and version
CREA.        2004/09/30 14:49                          :LAS Creation date {YYYY/MM/DD hh:mm}
SOURCE.     DLL_SONIC_LDL_CNL_035PUP.DLIS              :DLIS File Name
FILE-ID.     DLL_SONIC_LDL_CNL_035PUP                  :File Identification Number
#--------------------------------------------------
~WELL INFORMATION
#MNEM.UNIT      DATA             DESCRIPTION
#---- ------ --------------   -----------------------------
STRT .M      1817.6748       :START DEPTH     
STOP .M        25.7556       :STOP DEPTH     
STEP .M        -0.1524       :STEP     
NULL .          -999.25      :NULL VALUE
COMP .        GNPOC                                    :COMPANY
WELL .        Haraz-2                                  :WELL
FLD  .        Block 4                                  :FIELD
LOC  .                                                 :LOCATION
CNTY .        Roll'n 15                                :COUNTY
STAT .        Sudan                                    :STATE
CTRY .        Sudan                                    :COUNTRY
API  .                                                 :API NUMBER
UWI  .                                                 :UNIQUE WELL ID
DATE .        29-Sep-2004                              :LOG DATE {DD-MMM-YYYY}
SRVC .        Schlumberger                             :SERVICE COMPANY
LATI .DEG     10 31' 53.73" N                          :LATITUDE
LONG .DEG     28 05' 10.61" E                          :LONGITUDE
GDAT .                                                 :GeoDetic Datum
RMS  .OHM.M   0.0723                                   :MUD RESISTIVITY @ 83.0 DEGF
RMFS .OHM.M   0.0512                                   :MUD FILTRATE RESISTIVITY @ 83.6 DEGF
RMCS .OHM.M   0.1592                                   :MUD CAKE RESISTIVIT @ 82.90 DEGF
BSAL .PPM     35500                                    :BORE HOLE SALINITY
MRT  .DEGF    168                                      :MAXIMUM RECORDED TEMPERATURE
HOLV .M3      54.73                                    :HOLE VOLUME
CEMV .M3      31.90                                    :CEMENT VOLUME
#-----------------------------------------------------------------------------
~PARAMETER INFORMATION
#MNEM.UNIT    VALUE                      DESCRIPTION
#---- -----   --------------------       ------------------------
RUN  .          1                        :RUN NUMBER
PDAT .        MSL                        :Permanent Datum
EPD  .M           0.000000               :Elevation of Permanent Datum above Mean Sea Level
EPD  .M           0.000000               :Elevation of tool zero above Mean Sea Level
LMF  .          KB                       :Logging Measured From (Name of Logging Elevation Reference)
APD  .M         422.820007               :Elevation of Depth Reference (LMF) above Permanent Datum
#-----------------------------------------------------------------------------
~CURVE INFORMATION
#MNEM.UNIT   API CODE                                  DESCRIPTION
#---- -----  --------                                  -----------------------
DEPT .M                                                :DEPTH (BOREHOLE) {F10.4}
BS   .IN                                               :Bit Size {F13.4}
CALI .IN                                               :Caliper {F13.4}
DRHO .G/C3                                             :Bulk Density Correction {F13.4}
DT   .US/F                                             :Delta-T {F13.4}
GR   .GAPI                                             :Gamma Ray {F13.4}
LLD  .OHMM                                             :DEEP RESISTIVITY {F13.4}
LLS  .OHMM                                             :SHALLOW RESISTIVITY {F13.4}
MSFL .OHMM                                             :MSFL RESISTIVITY {F13.4}
NPHI .V/V                                              :Thermal Neutron Porosity (Ratio Method) {F13.4}
PEF  .                                                 :Photoelectric Factor {F13.4}
RHOB .G/C3                                             :Bulk Density {F13.4}
SP   .MV                                               :SP Shifted {F13.4}
TENS .LBF                                              :Cable Tension {F13.4}
#-----------------------------------------------------------------------------
# 
#     DEPT        BS           CALI         DRHO         DT           GR           LLD          LLS          MSFL         NPHI         PEF          RHOB         SP           TENS
#
~A  
# ...
  391.2108       9.8750       2.7484      -0.8170      51.9000      51.5741      60.5200      98.6000       0.1208       0.6396      89.7079       1.3572     -35.2500   10444.0000
  391.0584       9.8750       2.7467      -0.8108      51.5000      53.4605      60.5200      51.1450       0.1208       0.6365      81.2034       1.3699     -35.0625   10452.0000
  390.9060       9.8750       2.7484      -0.8631      51.4000      54.2979      60.5200      35.8777       0.1207       0.5985      52.0414       1.3246     -35.0000   10420.0000
  390.7536       9.8750       2.7501      -0.9731      52.4000      52.0382      60.5200      98.6000       0.1207       0.5772      48.8076       1.2879     -34.7500   10397.0000
  390.6012       9.8750       2.7492      -1.0621      53.1000      49.7344      60.5200      13.8894       0.1207       0.5762      62.3066       1.3298     -34.8750   10407.0000
  390.4488       9.8750       2.7492      -1.0607      55.4000      48.2989      60.5200      90.3631       0.1208       0.5855     265.6561       1.4848     -34.7500   10421.0000
  390.2964       9.8750       2.7461      -1.0710      54.3000      50.7979      60.5200      98.6000       0.1216       0.5523    -231.5960       1.4797     -34.9375   10390.0000
  390.1440       9.8750       2.7492      -1.0463      54.9000      54.5186      60.5200      12.7090       0.1209       0.6375    -200.7705       1.3607     -34.7500   10410.0000
  389.9916       9.8750       2.7481      -0.9549      52.7000      55.2364      60.5200      12.7839       0.1209       0.6781      79.4977       1.3157     -34.5000   10388.0000
  389.8392       9.8750       2.7504      -0.8750      51.5000      55.3560      60.5200      98.6000       0.1209       0.6820      50.3164       1.3110     -34.5000   10364.0000
  389.6868       9.8750       2.7510      -0.8452      52.1000      55.4052      60.5200      20.4250       0.1209       0.5978      55.8993       1.3207     -34.5000   10378.0000
  389.5344       9.8750       2.7501      -0.8300      52.0000      56.5664      60.5200      13.1876       0.1209       0.5611      61.2920       1.3604     -34.2500   10660.0000
  389.3820       9.8750       2.7528      -0.8085      51.9000      56.4467      60.5200      42.0946       0.1208       0.5688      73.1806       1.4365     -34.0625   10848.0000
  389.2296       9.8750       2.7499      -0.7707      50.9000      58.1399      60.5200      29.1937       0.1208       0.5252      54.9919       1.5755     -34.0000   10768.0000
  389.0772       9.8750       2.7492      -0.7371      50.5000      62.3831      60.5200      29.5722       0.1208       0.5127      51.4818       1.7148     -33.8750   10691.0000
  388.9248       9.8750       2.7501      -0.7235      51.2000      67.4261      60.5200      22.7402       0.1208       0.4922      50.9293       1.7612     -33.8125   10711.0000
  388.7724       9.8750       2.7487      -0.7431      51.7000      68.1084      60.5200      98.6000       0.1208       0.5511      72.9916       1.6917     -33.8750   10687.0000
  388.6200       9.8750       2.7499      -0.7754      51.1000      66.6629      60.5200      13.1950       0.1207       0.5946      78.5651       1.5672     -33.5625   11138.0000
  388.4676       9.8750       2.7492      -0.8063      51.3000      64.4909      60.5200      17.8261       0.1208       0.6155      71.3078       1.4496     -33.6250   10747.0000
  388.3152       9.8750       2.7501      -0.8295      51.3000      60.9021      60.5200      10.4901       0.1208       0.6539      68.6121       1.3636     -33.3750   13417.0000
  388.1628       9.8750       2.7481      -0.8500      51.6000      56.7055      60.5200      41.0269       0.1208       0.6710      85.3669       1.3004     -33.0000   15313.0000
  388.0104       9.8750       2.7484      -0.8582      52.0000      54.4486      60.5200      18.8567       0.1208       0.6947      84.8233       1.2883     -32.8750   15843.0000
  387.8580       9.8750       2.7448      -0.8626      51.9000      54.4486      60.5200      60.3881       0.1208       0.6571      82.8721       1.2792     -32.9375   16003.0000
  387.7056       9.8750       2.7501      -0.8628      51.9000      53.9399      60.5200      45.5119       0.1208       0.6917      57.3918       1.2847     -32.9375   16166.0000
  387.5532       9.8750       2.7492      -0.8655      52.4000      55.8380      60.5200      98.6000       0.1208       0.6722      58.6031       1.2897     -32.6875   16056.0000
  387.4008       9.8750       2.7484      -0.8562      51.9000      55.4949      60.5200      19.3824       0.1207       0.6727      60.3928       1.3248     -32.1250   16199.0000
  387.2484       9.8750       2.7489      -0.8353      51.8000      58.1654      60.5200      46.5868       0.1208       0.6180      71.1512       1.3763     -32.3125   16589.0000
  387.0960       9.8750       2.7461      -0.8252      51.7000      58.4046      60.5200      35.6035       0.1209       0.6223      69.3934       1.3995     -32.4375   16517.0000
  386.9436       9.8750       2.7473      -0.8151      51.6000      59.5851      60.5200      16.1104       0.1208       0.5943      74.1533       1.4213     -32.3750   16964.0000
  386.7912       9.8750       2.7481      -0.7992      51.7000      57.4217      60.5200      59.8069       0.1208       0.5637      87.6318       1.4495     -32.3125   16579.0000
  386.6388       9.8750       2.7461      -0.7987      51.3000      55.5340      60.5200      98.6000       0.1208       0.5548      62.1223       1.4406     -32.5000   15311.0000
  386.4864       9.8750       2.7470      -0.8204      51.4000      54.2181      60.5200      29.0367       0.1209       0.5824      62.4100       1.3766     -32.6875   14847.0000
  386.3340       9.8750       2.7461      -0.8357      51.3000      54.2197      60.5200      10.6855       0.1209       0.5716      61.0491       1.3221     -32.4375   14575.0000
  386.1816       9.8750       2.7484      -0.8379      51.5000      55.9877      60.5200      98.6000       0.1208       0.5889      92.4212       1.3092     -32.3125   14294.0000
  386.0292       9.8750       2.7461      -0.8171      51.6000      60.6532      60.5200      98.6000       0.1208       0.5769     114.2327       1.3896     -32.0625   14139.0000
  385.8768       9.8750       2.7467      -0.7826      51.8000      67.0116      60.5200      33.2534       0.1208       0.5590      90.5933       1.5292     -31.8750   14012.0000
  385.7244       9.8750       2.7461      -0.7206      51.7000      74.5096      60.5200      12.5399       0.1209       0.5145      91.6995       1.7245     -31.7500   13728.0000
  385.5720       9.8750       2.7484      -0.6800      51.4000      77.9788      60.5200      18.0557       0.1208       0.4923      65.5293       1.8272     -31.7500   13753.0000
  385.4196       9.8750       2.7481      -0.6665      51.7000      81.5395      60.5200      24.4020       0.1208       0.5223      75.4354       1.8375     -31.7500   13676.0000
  385.2672       9.8750       2.7470      -0.6682      51.9000      82.5352      60.5200      41.0989       0.1208       0.5348      76.8796       1.8268     -31.3750   13769.0000
  385.1148       9.8750       2.7481      -0.6537      51.9000      83.9949      60.5200      98.6000       0.1208       0.5609     109.7460       1.8407     -31.3125   14006.0000
  384.9624       9.8750       2.7484      -0.6567      52.1000      84.5035      60.5200      16.9584       0.1208       0.5775      91.1012       1.8306     -31.0000   14373.0000
  384.8100       9.8750       2.7481      -0.6653      52.0000      82.7091      60.5200      22.7933       0.1208       0.5479      54.1951       1.8138     -30.9375   14574.0000
  384.6576       9.8750       2.7492      -0.6754      52.4000      82.2064      60.5200      14.0521       0.1208       0.5418      52.3816       1.7913     -30.8125   14495.0000
  384.5052       9.8750       2.7501      -0.6826      52.1000      78.1370      60.5200      98.6000       0.1207       0.5118      52.4586       1.7676     -30.7500   14584.0000
