~VERSION INFORMATION
VERS.           2.0   :CWLS Log ASCII Standard - VERSION 2.0
WRAP.           NO    :One Line per depth step
PROD.  Schlumberger   :LAS Producer
PROG.  DLIS to ASCII 11C0-305                          :LAS Program name and version
CREA.        2004/09/30 14:49                          :LAS Creation date {YYYY/MM/DD hh:mm}
SOURCE.     DLL_SONIC_LDL_CNL_035PUP.DLIS              :DLIS File Name
FILE-ID.     DLL_SONIC_LDL_CNL_035PUP                  :File Identification Number
#--------------------------------------------------
~WELL INFORMATION
#MNEM.UNIT      DATA             DESCRIPTION
#---- ------ --------------   -----------------------------
STRT .M      1817.6748       :START DEPTH     
STOP .M        25.7556       :STOP DEPTH     
STEP .M        -0.1524       :STEP     
NULL .          -999.25      :NULL VALUE
COMP .        GNPOC                                    :COMPANY
WELL .        Haraz-2                                  :WELL
FLD  .        Block 4                                  :FIELD
LOC  .                                                 :LOCATION
CNTY .        Roll'n 15                                :COUNTY
STAT .        Sudan                                    :STATE
CTRY .        Sudan                                    :COUNTRY
API  .                                                 :API NUMBER
UWI  .                                                 :UNIQUE WELL ID
DATE .        29-Sep-2004                              :LOG DATE {DD-MMM-YYYY}
SRVC .        Schlumberger                             :SERVICE COMPANY
LATI .DEG     10 31' 53.73" N                          :LATITUDE
LONG .DEG     28 05' 10.61" E                          :LONGITUDE
GDAT .                                                 :GeoDetic Datum
RMS  .OHM.M   0.0723                                   :MUD RESISTIVITY @ 83.0 DEGF
RMFS .OHM.M   0.0512                                   :MUD FILTRATE RESISTIVITY @ 83.6 DEGF
RMCS .OHM.M   0.1592                                   :MUD CAKE RESISTIVIT @ 82.90 DEGF
BSAL .PPM     35500                                    :BORE HOLE SALINITY
MRT  .DEGF    168                                      :MAXIMUM RECORDED TEMPERATURE
HOLV .M3      54.73                                    :HOLE VOLUME
CEMV .M3      31.90                                    :CEMENT VOLUME
#-----------------------------------------------------------------------------
~PARAMETER INFORMATION
#MNEM.UNIT    VALUE                      DESCRIPTION
#---- -----   --------------------       ------------------------
RUN  .          1                        :RUN NUMBER
PDAT .        MSL                        :Permanent Datum
EPD  .M           0.000000               :Elevation of Permanent Datum above Mean Sea Level
EPD  .M           0.000000               :Elevation of tool zero above Mean Sea Level
LMF  .          KB                       :Logging Measured From (Name of Logging Elevation Reference)
APD  .M         422.820007               :Elevation of Depth Reference (LMF) above Permanent Datum
#-----------------------------------------------------------------------------
~CURVE INFORMATION
#MNEM.UNIT   API CODE                                  DESCRIPTION
#---- -----  --------                                  -----------------------
DEPT .M                                                :DEPTH (BOREHOLE) {F10.4}
BS   .IN                                               :Bit Size {F13.4}
CALI .IN                                               :Caliper {F13.4}
DRHO .G/C3                                             :Bulk Density Correction {F13.4}
DT   .US/F                                             :Delta-T {F13.4}
GR   .GAPI                                             :Gamma Ray {F13.4}
LLD  .OHMM                                             :DEEP RESISTIVITY {F13.4}
LLS  .OHMM                                             :SHALLOW RESISTIVITY {F13.4}
MSFL .OHMM                                             :MSFL RESISTIVITY {F13.4}
NPHI .V/V                                              :Thermal Neutron Porosity (Ratio Method) {F13.4}
PEF  .                                                 :Photoelectric Factor {F13.4}
RHOB .G/C3                                             :Bulk Density {F13.4}
SP   .MV                                               :SP Shifted {F13.4}
TENS .LBF                                              :Cable Tension {F13.4}
#-----------------------------------------------------------------------------
# 
#     DEPT        BS           CALI         DRHO         DT           GR           LLD          LLS          MSFL         NPHI         PEF          RHOB         SP           TENS
#
~A  
# ...
 1461.0588       9.8750       9.7864       0.0035      93.8000      51.9574      64.1849      51.2144       2.7452       0.2343       2.4843       2.1975    -141.3750    4564.0000
 1460.9064       9.8750       9.7872       0.0059      94.6000      56.4133      47.5920      41.5737       1.3846       0.2384       2.5146       2.2258    -142.5625    4418.0000
 1460.7540       9.8750       9.7841       0.0040      99.2000      66.0229      21.9754      21.2139       1.3450       0.2548       2.6330       2.2516    -143.5625    4644.0000
 1460.6016       9.8750       9.7875       0.0092      96.9000      78.2315      12.9268      12.8694       1.0514       0.2721       2.6872       2.3001    -141.8750    4703.0000
 1460.4492       9.8750       9.7891       0.0081      96.5000      87.1651       9.1613       9.2165       1.1126       0.2733       2.8888       2.3152    -141.1875    4655.0000
 1460.2968       9.8750       9.7930       0.0051      98.8000      91.0811       6.9237       6.8906       0.9937       0.2837       2.9341       2.2994    -141.7500    4684.0000
 1460.1444       9.8750       9.8219       0.0007     102.8000      93.4537       5.1706       5.0712       1.0089       0.3249       2.9408       2.2706    -141.3750    4643.0000
 1459.9920       9.8750       9.8405      -0.0022     104.5000     106.3884       4.6967       4.6408       1.1862       0.4079       3.1503       2.2391    -141.6875    4712.0000
 1459.8396       9.8750       9.8816      -0.0070     109.3000     125.4000       4.5843       4.5157       1.6975       0.4557       3.3735       2.2424    -140.4375    4704.0000
 1459.6872       9.8750       9.8939      -0.0063     113.3000     142.3269       4.6748       4.6277       2.2305       0.4337       3.3488       2.2751    -140.8750    4668.0000
 1459.5348       9.8750       9.8978      -0.0042     112.4000     147.4110       5.7634       5.6009       3.0715       0.3946       3.1268       2.3209    -142.3750    4629.0000
 1459.3824       9.8750       9.9626      -0.0064     108.3000     148.9087       6.4768       6.2045       3.1184       0.3811       2.9637       2.3439    -143.3750    4644.0000
 1459.2300       9.8750       9.9799      -0.0092     107.6000     150.6877       6.7413       6.3540       3.1449       0.3923       2.8756       2.3483    -143.4375    4830.0000
 1459.0776       9.8750       9.9818      -0.0085     105.4000     151.4992       6.8463       6.3456       3.8028       0.4011       2.8810       2.3615    -142.3125    4888.0000
 1458.9252       9.8750       9.9799      -0.0040     104.3000     148.3139       7.0138       6.3705       3.8992       0.3817       2.9326       2.3781    -144.0625    4528.0000
 1458.7728       9.8750       9.9838      -0.0008     103.1000     143.3915       7.0543       6.3415       3.7928       0.3586       3.0764       2.3878    -144.2500    4698.0000
 1458.6204       9.8750       9.9831       0.0029     101.4000     134.8974       7.1692       6.4276       4.0507       0.3515       3.0912       2.4024    -145.8125    5197.0000
 1458.4680       9.8750       9.9883       0.0147     101.4000     122.9921       7.0557       6.2573       4.3610       0.3466       3.2437       2.4263    -144.1875    5072.0000
 1458.3156       9.8750       9.9964       0.0235      97.5000     119.0549       7.0092       6.2281       4.7545       0.4001       3.4886       2.4549    -145.8125    4512.0000
 1458.1632       9.8750      10.0551       0.0246     100.6000     116.7953       6.6477       5.9105       3.0779       0.4154       4.0822       2.4305    -148.1250    4598.0000
 1458.0108       9.8750      10.1302       0.0221     103.0000     116.3526       5.9583       5.2823       1.3752       0.4427       4.4512       2.4141    -148.0000    4568.0000
 1457.8584       9.8750      10.1283       0.0199     102.2000     110.6865       5.4955       4.8679       1.1148       0.4264       4.5119       2.3973    -146.2500    4561.0000
 1457.7060       9.8750      10.1297       0.0138     104.0000     106.5063       5.3171       4.7181       3.6211       0.3997       4.2527       2.3996    -147.0000    4560.0000
 1457.5536       9.8750      10.1701       0.0599     103.2000     105.0708       4.9433       4.3690       2.9104       0.3837       4.0211       2.4001    -147.6875    4557.0000
 1457.4012       9.8750      10.6779       0.0762     106.0000     106.9669       4.4470       3.9117       1.8870       0.3971       3.9527       2.3327    -147.3125    4574.0000
 1457.2488       9.8750      11.0921       0.1043     112.4000     108.2097       4.0542       3.5273       0.4018       0.4092       4.2058       2.2693    -147.7500    4614.0000
 1457.0964       9.8750      11.6870       0.1218     118.1000     110.1303       3.7991       3.3032       0.6722       0.4200       4.5692       2.2488    -146.4375    4677.0000
 1456.9440       9.8750      11.3849       0.1310     121.7000     108.6862       3.7800       3.2639       0.6889       0.3958       4.8543       2.2508    -148.4375    4669.0000
 1456.7916       9.8750      10.9917       0.0872     120.6000     108.3048       3.9961       3.4291       0.9175       0.4068       4.7755       2.2331    -149.6250    5343.0000
 1456.6392       9.8750      10.5240       0.0573     115.6000     105.8047       4.4780       3.8284       0.8669       0.3668       4.4489       2.2430    -150.9375    4675.0000
 1456.4868       9.8750      10.1771       0.0483     110.7000     115.0878       4.9458       4.1545       0.9003       0.3541       3.9103       2.2817    -150.0625    4679.0000
 1456.3344       9.8750      10.1839       0.0336     104.9000     120.7620       5.0882       4.2596       1.1512       0.3628       3.5222       2.3075    -151.3750    4694.0000
 1456.1820       9.8750      10.1913       0.0234      97.2000     127.7813       4.8743       4.0706       0.6319       0.3951       3.5651       2.2899    -151.6250    4712.0000
 1456.0296       9.8750      10.2027       0.0215     103.1000     132.9596       4.6467       3.9102       0.5870       0.4033       3.8651       2.2877    -150.1250    4683.0000
 1455.8772       9.8750      10.2478       0.0264     103.4000     140.2074       4.6321       3.8632       1.0533       0.3570       4.0369       2.2906    -150.0625    4651.0000
 1455.7248       9.8750      10.2536       0.0156     104.8000     143.7801       4.5550       3.7786       0.5785       0.3529       3.8367       2.3182    -150.5625    4698.0000
 1455.5724       9.8750      10.2588       0.0210     109.0000     136.4365       4.7437       3.8828       1.3137       0.3641       3.8175       2.3494    -151.1250    4701.0000
 1455.4200       9.8750      10.2676       0.0185     107.2000     129.4317       5.5362       4.4698       0.9665       0.3728       3.7337       2.3968    -151.0000    4746.0000
 1455.2676       9.8750      10.2598       0.0351     100.6000     124.1873       5.9291       4.7725       2.3109       0.3749       3.8378       2.4603    -149.2500    4839.0000
 1455.1152       9.8750      10.2247       0.0717      98.6000     116.6176       6.2079       4.9108       3.3298       0.3423       4.0669       2.5268    -148.1875    4659.0000
 1454.9628       9.8750      10.2805       0.0920      98.4000     115.0359       5.8236       4.5522       3.0058       0.3663       4.5445       2.4464    -146.8125    4797.0000
 1454.8104       9.8750      10.4765       0.0833      98.4000     108.2203       5.4319       4.2628       0.5009       0.3806       4.6907       2.2900    -143.6875    5472.0000
 1454.6580       9.8750      10.9046       0.0900     101.3000     107.5612       5.3043       4.1879       0.3544       0.4141       4.8762       2.2306    -142.6875    4718.0000
 1454.5056       9.8750      11.5428       0.1344     102.8000     104.1567       4.9686       3.9126       0.3997       0.4053       5.1236       2.3007    -146.3750    4867.0000
 1454.3532       9.8750      12.1364       0.1308     101.7000     110.2716       4.8033       3.7604       2.3220       0.3956       5.2338       2.3602    -144.9375    4943.0000
