~VERSION INFORMATION
VERS.           2.0   :CWLS Log ASCII Standard - VERSION 2.0
WRAP.           NO    :One Line per depth step
PROD.  Schlumberger   :LAS Producer
PROG.  DLIS to ASCII 11C0-305                          :LAS Program name and version
CREA.        2004/09/30 14:49                          :LAS Creation date {YYYY/MM/DD hh:mm}
SOURCE.     DLL_SONIC_LDL_CNL_035PUP.DLIS              :DLIS File Name
FILE-ID.     DLL_SONIC_LDL_CNL_035PUP                  :File Identification Number
#--------------------------------------------------
~WELL INFORMATION
#MNEM.UNIT      DATA             DESCRIPTION
#---- ------ --------------   -----------------------------
STRT .M      1817.6748       :START DEPTH     
STOP .M        25.7556       :STOP DEPTH     
STEP .M        -0.1524       :STEP     
NULL .          -999.25      :NULL VALUE
COMP .        GNPOC                                    :COMPANY
WELL .        Haraz-2                                  :WELL
FLD  .        Block 4                                  :FIELD
LOC  .                                                 :LOCATION
CNTY .        Roll'n 15                                :COUNTY
STAT .        Sudan                                    :STATE
CTRY .        Sudan                                    :COUNTRY
API  .                                                 :API NUMBER
UWI  .                                                 :UNIQUE WELL ID
DATE .        29-Sep-2004                              :LOG DATE {DD-MMM-YYYY}
SRVC .        Schlumberger                             :SERVICE COMPANY
LATI .DEG     10 31' 53.73" N                          :LATITUDE
LONG .DEG     28 05' 10.61" E                          :LONGITUDE
GDAT .                                                 :GeoDetic Datum
RMS  .OHM.M   0.0723                                   :MUD RESISTIVITY @ 83.0 DEGF
RMFS .OHM.M   0.0512                                   :MUD FILTRATE RESISTIVITY @ 83.6 DEGF
RMCS .OHM.M   0.1592                                   :MUD CAKE RESISTIVIT @ 82.90 DEGF
BSAL .PPM     35500                                    :BORE HOLE SALINITY
MRT  .DEGF    168                                      :MAXIMUM RECORDED TEMPERATURE
HOLV .M3      54.73                                    :HOLE VOLUME
CEMV .M3      31.90                                    :CEMENT VOLUME
#-----------------------------------------------------------------------------
~PARAMETER INFORMATION
#MNEM.UNIT    VALUE                      DESCRIPTION
#---- -----   --------------------       ------------------------
RUN  .          1                        :RUN NUMBER
PDAT .        MSL                        :Permanent Datum
EPD  .M           0.000000               :Elevation of Permanent Datum above Mean Sea Level
EPD  .M           0.000000               :Elevation of tool zero above Mean Sea Level
LMF  .          KB                       :Logging Measured From (Name of Logging Elevation Reference)
APD  .M         422.820007               :Elevation of Depth Reference (LMF) above Permanent Datum
#-----------------------------------------------------------------------------
~CURVE INFORMATION
#MNEM.UNIT   API CODE                                  DESCRIPTION
#---- -----  --------                                  -----------------------
DEPT .M                                                :DEPTH (BOREHOLE) {F10.4}
BS   .IN                                               :Bit Size {F13.4}
CALI .IN                                               :Caliper {F13.4}
DRHO .G/C3                                             :Bulk Density Correction {F13.4}
DT   .US/F                                             :Delta-T {F13.4}
GR   .GAPI                                             :Gamma Ray {F13.4}
LLD  .OHMM                                             :DEEP RESISTIVITY {F13.4}
LLS  .OHMM                                             :SHALLOW RESISTIVITY {F13.4}
MSFL .OHMM                                             :MSFL RESISTIVITY {F13.4}
NPHI .V/V                                              :Thermal Neutron Porosity (Ratio Method) {F13.4}
PEF  .                                                 :Photoelectric Factor {F13.4}
RHOB .G/C3                                             :Bulk Density {F13.4}
SP   .MV                                               :SP Shifted {F13.4}
TENS .LBF                                              :Cable Tension {F13.4}
#-----------------------------------------------------------------------------
# 
#     DEPT        BS           CALI         DRHO         DT           GR           LLD          LLS          MSFL         NPHI         PEF          RHOB         SP           TENS
#
~A  
# ...
  987.8568       9.8750      13.0250       0.0141     102.3000     106.1630       7.2369       4.3837       2.3583       0.3118       3.2273       2.2973    -106.8750   22409.0000
  987.7044       9.8750      13.0042       0.0067      94.3000     106.4788       7.9604       4.7236       2.5441       0.2612       3.0291       2.3157    -106.5625   22489.0000
  987.5520       9.8750      12.9914       0.0055      93.2000     103.8196       7.8642       4.6372       2.5508       0.2588       2.8992       2.3141    -105.8125   22435.0000
  987.3996       9.8750      12.9733       0.0054      94.2000     101.6725       7.2986       4.3108       1.8907       0.2598       2.7748       2.3247    -105.4375   22333.0000
  987.2472       9.8750      12.9632       0.0060      93.2000      97.5419       6.5909       3.9417       1.3668       0.2773       2.8606       2.3313    -105.0000   22459.0000
  987.0948       9.8750      12.9550       0.0062      93.6000      92.9038       6.4831       3.8544       1.5954       0.2664       2.7011       2.3399    -104.6250   22324.0000
  986.9424       9.8750      12.9193       0.0031      91.8000      85.8850       6.6344       3.9450       1.6170       0.2623       2.5794       2.3343    -104.0625   22215.0000
  986.7900       9.8750      12.9066      -0.0009      92.9000      82.7150       6.8907       4.0620       1.7495       0.2569       2.4063       2.3317    -103.6875   22347.0000
  986.6376       9.8750      12.8817      -0.0033      93.6000      80.1225       6.8840       4.0331       1.8070       0.2807       2.4591       2.3263    -103.3125   22253.0000
  986.4852       9.8750      12.8214      -0.0055      92.7000      83.7501       6.4454       3.7953       1.5453       0.2730       2.4728       2.3168    -102.9375   22219.0000
  986.3328       9.8750      12.6297      -0.0081      91.7000      83.0320       5.6919       3.4136       1.3521       0.2862       2.5793       2.3112    -102.8125   22339.0000
  986.1804       9.8750      12.4347      -0.0045      93.1000      89.2134       5.2239       3.1441       1.2686       0.2629       2.8293       2.3105    -102.7500   22218.0000
  986.0280       9.8750      12.4178      -0.0025      93.5000      91.8130       4.8421       2.9475       1.1253       0.2837       2.9125       2.3154    -102.7500   22193.0000
  985.8756       9.8750      12.4411      -0.0017      95.5000      96.6003       4.8072       2.9410       1.1087       0.2926       3.0953       2.3219    -102.6875   22373.0000
  985.7232       9.8750      12.5106       0.0038      97.0000      94.3731       5.2648       3.1790       1.0937       0.3156       3.1279       2.3390    -102.5625   22368.0000
  985.5708       9.8750      12.5276       0.0073      99.5000      91.4562       6.3303       3.7631       1.2274       0.3148       3.2069       2.3474    -102.4375   22184.0000
  985.4184       9.8750      12.6396       0.0110     100.4000      88.1052       8.0114       4.7203       1.6008       0.3062       2.9318       2.3440    -102.2500   22313.0000
  985.2660       9.8750      12.6122       0.0130     100.3000      87.9528       9.6986       5.5906       3.2656       0.3160       2.7989       2.3421    -102.1250   22152.0000
  985.1136       9.8750      12.6147       0.0197     100.3000      91.5417      11.3521       6.4331       2.0704       0.3106       2.9643       2.3416    -102.4375   22215.0000
  984.9612       9.8750      12.5326       0.0376      98.0000      93.1761      10.4595       5.8779       2.2112       0.2827       3.2462       2.3704    -102.3750   22169.0000
  984.8088       9.8750      12.4062       0.0427      98.0000      91.6338       8.3224       4.6694       2.1063       0.2407       3.2470       2.3744    -102.8125   22117.0000
  984.6564       9.8750      12.0800       0.0471      96.8000      89.9864       5.8231       3.3375       1.7480       0.2232       3.1525       2.3767    -103.3750   22176.0000
  984.5040       9.8750      11.9164       0.0551      95.1000      90.8903       4.9011       2.8380       1.1323       0.2345       3.3324       2.3590    -103.9375   22078.0000
  984.3516       9.8750      11.9653       0.0562      93.9000      90.1587       4.7209       2.7076       0.9150       0.2510       3.4839       2.3442    -104.3750   22189.0000
  984.1992       9.8750      12.3503       0.0439      94.6000      85.9237       5.0760       2.8357       1.0642       0.2727       3.6304       2.3213    -104.7500   22270.0000
  984.0468       9.8750      12.4228       0.0373      94.2000      84.8215       6.8619       3.5853       1.1030       0.2782       3.3445       2.3215    -105.8125   22221.0000
  983.8944       9.8750      12.4512       0.0260      93.9000      85.5272       7.8890       4.0094       0.9911       0.2756       3.1795       2.3245    -106.5000   22283.0000
  983.7420       9.8750      12.4812       0.0194      91.2000      85.9905       8.0719       4.0714       0.9745       0.2594       2.9332       2.3408    -106.6875   22404.0000
  983.5896       9.8750      12.5642       0.0110      89.5000      82.0198       8.3682       4.1636       0.9576       0.2609       2.7744       2.3448    -106.6250   22101.0000
  983.4372       9.8750      12.5800       0.0072      90.3000      83.9338       8.8544       4.2600       0.9565       0.2822       2.6496       2.3460    -106.5625   22276.0000
  983.2848       9.8750      12.5877       0.0068      90.5000      82.5667       9.3801       4.3399       1.0081       0.2905       2.5404       2.3505    -106.4375   21987.0000
  983.1324       9.8750      12.5897       0.0095      89.8000      86.7905       9.6338       4.3929       1.0192       0.3025       2.5003       2.3630    -106.4375   21565.0000
  982.9800       9.8750      12.5661       0.0098      88.9000      85.1401       9.4798       4.3247       0.9973       0.2778       2.4614       2.3675    -106.5625   21649.0000
  982.8276       9.8750      12.5208       0.0116      90.7000      88.0982       8.7130       4.0573       1.0274       0.2655       2.4282       2.3603    -105.5000   21812.0000
  982.6752       9.8750      12.5145       0.0154      89.2000      87.5923       8.0044       3.8381       1.0823       0.2450       2.4698       2.3595    -104.0625   21691.0000
  982.5228       9.8750      12.5003       0.0161      89.7000      88.6575       6.7459       3.3872       1.1036       0.2529       2.6383       2.3570    -102.6250   21540.0000
  982.3704       9.8750      12.4602       0.0141      85.6000      85.4276       5.9378       3.0747       1.0461       0.2453       2.6694       2.3564    -100.7500   21411.0000
  982.2180       9.8750      12.4415       0.0115      86.1000      83.7442       5.8640       3.0682       0.9915       0.2401       2.6018       2.3471     -99.1875   21229.0000
  982.0656       9.8750      12.4405       0.0107      86.0000      83.7312       6.2729       3.2751       0.9837       0.2456       2.4703       2.3379     -97.3125   21196.0000
  981.9132       9.8750      12.5718       0.0078      88.8000      86.2744       7.1990       3.6928       0.9551       0.2591       2.5786       2.3308     -95.5625   21281.0000
  981.7608       9.8750      12.8711       0.0092      91.7000      89.5129       7.8711       4.0158       0.8147       0.2845       2.7165       2.3312     -94.7500   21329.0000
  981.6084       9.8750      13.0428       0.0118      92.1000      88.6867       8.7951       4.5488       0.8904       0.2996       2.7306       2.3383     -94.1875   21063.0000
  981.4560       9.8750      13.0978       0.0141      94.3000      90.7028       8.0003       4.4466       0.9505       0.3214       2.6389       2.3330     -93.1875   21056.0000
  981.3036       9.8750      13.1434       0.0095      94.4000      91.1805       6.2467       3.6917       1.1380       0.3368       2.4638       2.3005     -92.8125   21162.0000
  981.1512       9.8750      12.9193       0.0092      65.8000     100.0383       4.7261       2.9252       1.2993       0.3516       2.5662       2.2375     -92.3750   20894.0000
