~VERSION INFORMATION
VERS.           2.0   :CWLS Log ASCII Standard - VERSION 2.0
WRAP.           NO    :One Line per depth step
PROD.  Schlumberger   :LAS Producer
PROG.  DLIS to ASCII 11C0-305                          :LAS Program name and version
CREA.        2004/09/30 14:49                          :LAS Creation date {YYYY/MM/DD hh:mm}
SOURCE.     DLL_SONIC_LDL_CNL_035PUP.DLIS              :DLIS File Name
FILE-ID.     DLL_SONIC_LDL_CNL_035PUP                  :File Identification Number
#--------------------------------------------------
~WELL INFORMATION
#MNEM.UNIT      DATA             DESCRIPTION
#---- ------ --------------   -----------------------------
STRT .M      1817.6748       :START DEPTH     
STOP .M        25.7556       :STOP DEPTH     
STEP .M        -0.1524       :STEP     
NULL .          -999.25      :NULL VALUE
COMP .        GNPOC                                    :COMPANY
WELL .        Haraz-2                                  :WELL
FLD  .        Block 4                                  :FIELD
LOC  .                                                 :LOCATION
CNTY .        Roll'n 15                                :COUNTY
STAT .        Sudan                                    :STATE
CTRY .        Sudan                                    :COUNTRY
API  .                                                 :API NUMBER
UWI  .                                                 :UNIQUE WELL ID
DATE .        29-Sep-2004                              :LOG DATE {DD-MMM-YYYY}
SRVC .        Schlumberger                             :SERVICE COMPANY
LATI .DEG     10 31' 53.73" N                          :LATITUDE
LONG .DEG     28 05' 10.61" E                          :LONGITUDE
GDAT .                                                 :GeoDetic Datum
RMS  .OHM.M   0.0723                                   :MUD RESISTIVITY @ 83.0 DEGF
RMFS .OHM.M   0.0512                                   :MUD FILTRATE RESISTIVITY @ 83.6 DEGF
RMCS .OHM.M   0.1592                                   :MUD CAKE RESISTIVIT @ 82.90 DEGF
BSAL .PPM     35500                                    :BORE HOLE SALINITY
MRT  .DEGF    168                                      :MAXIMUM RECORDED TEMPERATURE
HOLV .M3      54.73                                    :HOLE VOLUME
CEMV .M3      31.90                                    :CEMENT VOLUME
#-----------------------------------------------------------------------------
~PARAMETER INFORMATION
#MNEM.UNIT    VALUE                      DESCRIPTION
#---- -----   --------------------       ------------------------
RUN  .          1                        :RUN NUMBER
PDAT .        MSL                        :Permanent Datum
EPD  .M           0.000000               :Elevation of Permanent Datum above Mean Sea Level
EPD  .M           0.000000               :Elevation of tool zero above Mean Sea Level
LMF  .          KB                       :Logging Measured From (Name of Logging Elevation Reference)
APD  .M         422.820007               :Elevation of Depth Reference (LMF) above Permanent Datum
#-----------------------------------------------------------------------------
~CURVE INFORMATION
#MNEM.UNIT   API CODE                                  DESCRIPTION
#---- -----  --------                                  -----------------------
DEPT .M                                                :DEPTH (BOREHOLE) {F10.4}
BS   .IN                                               :Bit Size {F13.4}
CALI .IN                                               :Caliper {F13.4}
DRHO .G/C3                                             :Bulk Density Correction {F13.4}
DT   .US/F                                             :Delta-T {F13.4}
GR   .GAPI                                             :Gamma Ray {F13.4}
LLD  .OHMM                                             :DEEP RESISTIVITY {F13.4}
LLS  .OHMM                                             :SHALLOW RESISTIVITY {F13.4}
MSFL .OHMM                                             :MSFL RESISTIVITY {F13.4}
NPHI .V/V                                              :Thermal Neutron Porosity (Ratio Method) {F13.4}
PEF  .                                                 :Photoelectric Factor {F13.4}
RHOB .G/C3                                             :Bulk Density {F13.4}
SP   .MV                                               :SP Shifted {F13.4}
TENS .LBF                                              :Cable Tension {F13.4}
#-----------------------------------------------------------------------------
# 
#     DEPT        BS           CALI         DRHO         DT           GR           LLD          LLS          MSFL         NPHI         PEF          RHOB         SP           TENS
#
~A  
# ...
  507.7968       9.8750       2.7504      -0.7035      51.9000      74.5284      60.5200      45.5147       0.1207       0.5602      51.6374       1.5744     -50.9375    8954.0000
  507.6444       9.8750       2.7510      -0.6880      51.5000      72.1359      60.5200      20.4321       0.1207       0.5638      44.1208       1.5842     -50.8125    8842.0000
  507.4920       9.8750       2.7504      -0.6845      51.4000      74.0499      60.5200      12.5112       0.1207       0.5351      56.3885       1.5822     -51.0000    8699.0000
  507.3396       9.8750       2.7501      -0.6754      51.6000      74.6481      60.5200      98.6000       0.1207       0.4879      52.5141       1.5854     -51.1250    8706.0000
  507.1872       9.8750       2.7501      -0.6706      51.3000      73.9123      60.5200      98.6000       0.1207       0.4951      54.3932       1.5813     -50.9375    8723.0000
  507.0348       9.8750       2.7501      -0.6704      51.3000      68.0505      60.5200      20.8159       0.1207       0.5381      45.7351       1.5665     -50.8125    8748.0000
  506.8824       9.8750       2.7504      -0.6771      50.3000      67.1139      60.5200      18.1175       0.1208       0.5348      44.4287       1.5539     -50.5625    8711.0000
  506.7300       9.8750       2.7504      -0.6740      51.3000      66.8927      60.5200      70.4400       0.1208       0.5381      47.4742       1.5353     -50.8750    8610.0000
  506.5776       9.8750       2.7481      -0.6768      51.6000      69.6441      60.5200      34.4432       0.1207       0.5836      54.3625       1.5133     -51.0625    8579.0000
  506.4252       9.8750       2.7501      -0.6844      50.8000      67.5900      60.5200      15.5749       0.1207       0.6341      57.6489       1.4773     -51.3125    8491.0000
  506.2728       9.8750       2.7501      -0.7023      50.8000      63.5394      60.5200      25.8104       0.1207       0.6341      59.2359       1.4483     -51.3125    8423.0000
  506.1204       9.8750       2.7504      -0.7873      51.5000      61.3861      60.5200      45.5602       0.1207       0.5922      56.6195       1.4161     -51.3125    8308.0000
  505.9680       9.8750       2.7501      -0.8854      51.4000      59.3693      60.5200       7.4857       0.1206       0.5766      48.1952       1.4283     -51.1875    8303.0000
  505.8156       9.8750       2.7504      -0.8813      46.6000      59.5918      60.5200      28.4848       0.1206       0.5932      59.6929       1.5730     -51.1875    8252.0000
  505.6632       9.8750       2.7501      -0.8810      45.8000      58.3955      60.5200      98.6000       0.1234       0.5893      88.2074       1.6693     -51.0625    8213.0000
  505.5108       9.8750       2.7501      -0.9117      46.8000      61.1301      60.5200      13.8029       0.1212       0.5831    1187.2034       1.5623     -50.8125    8164.0000
  505.3584       9.8750       2.7501      -0.8139      53.5000      61.5432      60.5200      12.4004       0.1209       0.5470      99.5733       1.6038     -50.8750    8123.0000
  505.2060       9.8750       2.7501      -0.7257      48.7000      59.6291      60.5200      39.9536       0.1206       0.4857      80.2616       1.6374     -50.9375    8092.0000
  505.0536       9.8750       2.7516      -0.6898      52.2000      55.8169      60.5200      64.1157       0.1206       0.4694      62.3263       1.7247     -50.8750    8222.0000
  504.9012       9.8750       2.7501      -0.6598      52.0000      57.5760      60.5200      13.9831       0.1207       0.4093      73.6119       1.8095     -50.8125    8024.0000
  504.7488       9.8750       2.7501      -0.6281      52.1000      59.9686      60.5200      98.6000       0.1206       0.4279      78.7959       1.8782     -50.6875    7990.0000
  504.5964       9.8750       2.7504      -0.6073      50.9000      66.4222      60.5200      15.2420       0.1206       0.3983      76.5140       1.9170     -50.5000    7987.0000
  504.4440       9.8750       2.7504      -0.5917      52.0000      64.1304      60.5200       9.9440       0.1207       0.4130      64.1237       1.9310     -50.5000    7962.0000
  504.2916       9.8750       2.7492      -0.5846      50.7000      64.8482      60.5200      98.6000       0.1207       0.4335      35.9209       1.9358     -50.3750    7941.0000
  504.1392       9.8750       2.7499      -0.5751      51.4000      62.6853      60.5200      33.0432       0.1208       0.4739      33.5033       1.9304     -50.3750    7928.0000
  503.9868       9.8750       2.7507      -0.5749      51.5000      67.9651      60.5200      10.9935       0.1207       0.4831      37.2271       1.9297     -50.5000    7878.0000
  503.8344       9.8750       2.7501      -0.5818      51.4000      67.8455      60.5200      98.6000       0.1207       0.4714      46.4183       1.9122     -50.5625    7883.0000
  503.6820       9.8750       2.7501      -0.5937      51.5000      71.0008      60.5200      98.6000       0.1206       0.4656      42.4210       1.8678     -51.1250    7927.0000
  503.5296       9.8750       2.7501      -0.6006      51.1000      71.1042      60.5200      14.1947       0.1206       0.4847      38.3458       1.8156     -51.4375    7850.0000
  503.3772       9.8750       2.7501      -0.6164      51.2000      72.0612      60.5200      10.0278       0.1206       0.5262      47.6789       1.7583     -51.3750    7814.0000
  503.2248       9.8750       2.7507      -0.6145      51.3000      70.5807      60.5200      98.6000       0.1206       0.5589      46.4988       1.7290     -51.3125    7840.0000
  503.0724       9.8750       2.7501      -0.6099      51.5000      70.3629      60.5200      26.3596       0.1207       0.5893      35.1075       1.7418     -51.4375    7779.0000
  502.9200       9.8750       2.7481      -0.6042      51.7000      71.4602      60.5200      14.4753       0.1206       0.5591      29.3075       1.7678     -51.3750    7755.0000
  502.7676       9.8750       2.7501      -0.5939      51.7000      70.6228      60.5200      98.6000       0.1207       0.5276      26.5212       1.8134     -51.3750    7681.0000
  502.6152       9.8750       2.7501      -0.5803      51.7000      69.7640      60.5200      20.0633       0.1206       0.4882      31.3476       1.8648     -51.1875    7636.0000
  502.4628       9.8750       2.7504      -0.5781      51.4000      68.5470      60.5200      92.9122       0.1206       0.4553      32.6304       1.9068     -50.9375    7609.0000
  502.3104       9.8750       2.7504      -0.5642      51.0000      69.5041      60.5200      24.5598       0.1206       0.4512      38.9181       1.9678     -51.1875    7580.0000
  502.1580       9.8750       2.7501      -0.5625      51.1000      71.5602      60.5200      16.0174       0.1206       0.4567      41.6842       1.9808     -51.0625    7511.0000
  502.0056       9.8750       2.7501      -0.5653      50.8000      73.0515      60.5200      98.6000       0.1207       0.5100      44.9817       1.9782     -50.8750    7538.0000
  501.8532       9.8750       2.7501      -0.5726      50.7000      71.2768      60.5200      20.0241       0.1209       0.5487      37.6353       1.9596     -50.8125    7553.0000
  501.7008       9.8750       2.7501      -0.5740      50.7000      67.0674      60.5200      10.8803       0.1209       0.5487      38.4064       1.9505     -50.9375    7618.0000
  501.5484       9.8750       2.7504      -0.5792      50.5000      67.2508      60.5200      98.6000       0.1206       0.5111      34.0559       1.9274     -51.0625    7602.0000
  501.3960       9.8750       2.7501      -0.5703      50.9000      68.1094      60.5200      16.7182       0.1206       0.4827      40.2025       1.9401     -51.0000    7586.0000
  501.2436       9.8750       2.7484      -0.5623      50.9000      70.8609      60.5200      16.6021       0.1206       0.4858      39.1271       1.9477     -51.1250    7555.0000
  501.0912       9.8750       2.7501      -0.5489      51.0000      70.7413      60.5200      98.6000       0.1206       0.5005      45.9122       1.9775     -51.1875    7531.0000
