~VERSION INFORMATION
VERS.           2.0   :CWLS Log ASCII Standard - VERSION 2.0
WRAP.           NO    :One Line per depth step
PROD.  Schlumberger   :LAS Producer
PROG.  DLIS to ASCII 11C0-305                          :LAS Program name and version
CREA.        2004/09/30 14:49                          :LAS Creation date {YYYY/MM/DD hh:mm}
SOURCE.     DLL_SONIC_LDL_CNL_035PUP.DLIS              :DLIS File Name
FILE-ID.     DLL_SONIC_LDL_CNL_035PUP                  :File Identification Number
#--------------------------------------------------
~WELL INFORMATION
#MNEM.UNIT      DATA             DESCRIPTION
#---- ------ --------------   -----------------------------
STRT .M      1817.6748       :START DEPTH     
STOP .M        25.7556       :STOP DEPTH     
STEP .M        -0.1524       :STEP     
NULL .          -999.25      :NULL VALUE
COMP .        GNPOC                                    :COMPANY
WELL .        Haraz-2                                  :WELL
FLD  .        Block 4                                  :FIELD
LOC  .                                                 :LOCATION
CNTY .        Roll'n 15                                :COUNTY
STAT .        Sudan                                    :STATE
CTRY .        Sudan                                    :COUNTRY
API  .                                                 :API NUMBER
UWI  .                                                 :UNIQUE WELL ID
DATE .        29-Sep-2004                              :LOG DATE {DD-MMM-YYYY}
SRVC .        Schlumberger                             :SERVICE COMPANY
LATI .DEG     10 31' 53.73" N                          :LATITUDE
LONG .DEG     28 05' 10.61" E                          :LONGITUDE
GDAT .                                                 :GeoDetic Datum
RMS  .OHM.M   0.0723                                   :MUD RESISTIVITY @ 83.0 DEGF
RMFS .OHM.M   0.0512                                   :MUD FILTRATE RESISTIVITY @ 83.6 DEGF
RMCS .OHM.M   0.1592                                   :MUD CAKE RESISTIVIT @ 82.90 DEGF
BSAL .PPM     35500                                    :BORE HOLE SALINITY
MRT  .DEGF    168                                      :MAXIMUM RECORDED TEMPERATURE
HOLV .M3      54.73                                    :HOLE VOLUME
CEMV .M3      31.90                                    :CEMENT VOLUME
#-----------------------------------------------------------------------------
~PARAMETER INFORMATION
#MNEM.UNIT    VALUE                      DESCRIPTION
#---- -----   --------------------       ------------------------
RUN  .          1                        :RUN NUMBER
PDAT .        MSL                        :Permanent Datum
EPD  .M           0.000000               :Elevation of Permanent Datum above Mean Sea Level
EPD  .M           0.000000               :Elevation of tool zero above Mean Sea Level
LMF  .          KB                       :Logging Measured From (Name of Logging Elevation Reference)
APD  .M         422.820007               :Elevation of Depth Reference (LMF) above Permanent Datum
#-----------------------------------------------------------------------------
~CURVE INFORMATION
#MNEM.UNIT   API CODE                                  DESCRIPTION
#---- -----  --------                                  -----------------------
DEPT .M                                                :DEPTH (BOREHOLE) {F10.4}
BS   .IN                                               :Bit Size {F13.4}
CALI .IN                                               :Caliper {F13.4}
DRHO .G/C3                                             :Bulk Density Correction {F13.4}
DT   .US/F                                             :Delta-T {F13.4}
GR   .GAPI                                             :Gamma Ray {F13.4}
LLD  .OHMM                                             :DEEP RESISTIVITY {F13.4}
LLS  .OHMM                                             :SHALLOW RESISTIVITY {F13.4}
MSFL .OHMM                                             :MSFL RESISTIVITY {F13.4}
NPHI .V/V                                              :Thermal Neutron Porosity (Ratio Method) {F13.4}
PEF  .                                                 :Photoelectric Factor {F13.4}
RHOB .G/C3                                             :Bulk Density {F13.4}
SP   .MV                                               :SP Shifted {F13.4}
TENS .LBF                                              :Cable Tension {F13.4}
#-----------------------------------------------------------------------------
# 
#     DEPT        BS           CALI         DRHO         DT           GR           LLD          LLS          MSFL         NPHI         PEF          RHOB         SP           TENS
#
~A  
# ...
 1344.4728       9.8750      11.3019      -0.0018     127.0000     100.3123       2.0515       1.7952       0.7029       0.3861       4.7236       2.2129     -94.8750    4348.0000
 1344.3204       9.8750      11.5216      -0.0001     124.9000      96.7632       2.1462       1.8352       0.6951       0.3619       4.8339       2.2159     -94.6250    4461.0000
 1344.1680       9.8750      11.4587       0.0062     123.5000      96.5509       2.2603       1.9058       0.8896       0.3781       4.9155       2.2239     -94.7500    4430.0000
 1344.0156       9.8750      11.2343       0.0065     123.2000      98.9056       2.3064       1.9350       0.8343       0.3765       5.2665       2.2327     -94.1250    4442.0000
 1343.8632       9.8750      11.2711       0.0084     122.9000     100.1484       2.3439       1.9420       0.7368       0.3958       5.4412       2.2392     -93.6250    4515.0000
 1343.7108       9.8750      11.3461       0.0083     119.6000     100.9916       2.3040       1.9052       0.7748       0.4024       5.4914       2.2418     -93.6250    4451.0000
 1343.5584       9.8750      11.2486       0.0086     118.6000      99.6009       2.2220       1.8169       0.7884       0.4207       5.4093       2.2384     -93.6875    4509.0000
 1343.4060       9.8750      10.9859       0.0128     121.7000      99.2758       1.9605       1.5761       0.7528       0.4332       5.4447       2.2274     -95.1875    4633.0000
 1343.2536       9.8750      10.8622       0.0188     123.9000     100.9750       1.7272       1.3833       0.6296       0.4191       5.3990       2.2065     -93.8750    4598.0000
 1343.1012       9.8750      10.9275       0.0126     137.8000      99.6192       1.6343       1.3117       0.5452       0.4353       5.3757       2.1591     -93.7500    4635.0000
 1342.9488       9.8750      10.5638       0.0097     140.2000      97.5848       1.4810       1.1787       0.4637       0.4538       5.4705       2.1211     -93.8125    4693.0000
 1342.7964       9.8750      10.1360       0.0078     131.3000      92.6561       1.4178       1.1362       0.5989       0.4727       5.1446       2.0866     -94.0000    4704.0000
 1342.6440       9.8750       9.9433       0.0003     134.6000      92.8820       1.4547       1.1723       0.7839       0.4586       4.2673       2.0530     -94.0625    4636.0000
 1342.4916       9.8750       9.8308      -0.0043     138.1000      90.3882       1.5285       1.2512       0.5819       0.4455       3.7239       2.0445     -93.9375    4634.0000
 1342.3392       9.8750       9.6677      -0.0033     139.6000      91.3919       1.6117       1.3158       0.6239       0.4358       3.6747       2.0601     -93.8750    4586.0000
 1342.1868       9.8750       9.6052       0.0026     140.7000      90.8207       1.8762       1.5061       0.7371       0.4260       3.9519       2.0874     -93.1250    4642.0000
 1342.0344       9.8750       9.6039       0.0078     139.9000      90.7030       1.9611       1.5755       0.6507       0.4318       4.1048       2.0938     -93.0000    4571.0000
 1341.8820       9.8750       9.6137       0.0134     155.8000      93.4507       1.9851       1.5923       0.6708       0.4246       4.2144       2.0897     -92.2500    4407.0000
 1341.7296       9.8750       9.7421       0.0118     154.6000      93.0178       1.9929       1.5827       0.6178       0.4336       4.4663       2.0905     -91.5625    4483.0000
 1341.5772       9.8750       9.6639       0.0149     154.2000      95.6163       1.9861       1.5656       0.6215       0.4303       4.8606       2.1023     -91.2500    4623.0000
 1341.4248       9.8750       9.9087       0.0217     151.1000      93.0476       2.0126       1.5619       0.5324       0.4247       4.7383       2.1343     -91.0625    4484.0000
 1341.2724       9.8750       9.7371       0.0229     149.1000      94.8425       2.0347       1.5877       0.7994       0.4235       4.6851       2.1509     -91.0625    4479.0000
 1341.1200       9.8750       9.8732       0.0178     148.1000      94.6553       2.0795       1.6179       0.6969       0.4097       4.7311       2.1510     -91.2500    4524.0000
 1340.9676       9.8750       9.8887       0.0199     154.4000      97.2240       2.1071       1.6268       0.5209       0.4042       4.9679       2.1531     -91.2500    4501.0000
 1340.8152       9.8750       9.9683       0.0183     153.9000      96.7854       2.1166       1.6446       0.6655       0.4183       5.2635       2.1535     -92.6250    4380.0000
 1340.6628       9.8750      10.1013       0.0144     153.7000     100.7009       2.1533       1.6728       0.6190       0.4232       5.1492       2.1655     -93.2500    4496.0000
 1340.5104       9.8750      10.1911       0.0111     154.2000     102.2596       2.3062       1.7915       0.7329       0.4470       5.0874       2.2065     -93.6875    4381.0000
 1340.3580       9.8750      10.1200       0.0102     154.5000     101.0029       2.5021       1.9303       0.7128       0.4180       4.8152       2.2727     -94.3750    4361.0000
 1340.2056       9.8750      10.0763       0.0263     161.9000      90.3808       3.0148       2.2746       0.8495       0.3780       4.9613       2.3745     -95.0000    4481.0000
 1340.0532       9.8750      10.1823       0.0220     186.2000      81.9074       4.2791       3.1280       1.3410       0.3556       5.3254       2.3852     -95.2500    4405.0000
 1339.9008       9.8750      10.1399       0.0082     184.4000      80.2134       5.2182       3.8278       0.9427       0.3580       5.3334       2.3254     -95.0625    4407.0000
 1339.7484       9.8750      10.1360       0.0071     184.7000      88.1597       5.2119       3.8513       0.7341       0.3642       5.0403       2.2994     -95.2500    4451.0000
 1339.5960       9.8750      10.4265       0.0051     186.0000      93.6957       4.3104       3.2550       0.8131       0.3415       5.0693       2.2831     -94.6250    4517.0000
 1339.4436       9.8750      10.5331       0.0012     189.0000     100.0225       3.6081       2.7704       0.9343       0.3309       4.8054       2.2628     -94.6875    4470.0000
 1339.2912       9.8750      10.6294       0.0011     180.1000     103.4489       3.1740       2.4885       0.6682       0.3573       4.9730       2.2121     -94.6875    4369.0000
 1339.1388       9.8750      11.3577       0.0019     181.1000     102.8840       2.8621       2.2747       0.5194       0.3768       4.8699       2.1807     -94.6875    4371.0000
 1338.9864       9.8750      11.1628       0.0043     181.4000     101.5282       2.9483       2.3411       0.5698       0.3847       5.2950       2.1708     -94.6250    4504.0000
 1338.8340       9.8750      10.8471       0.0073     168.5000      98.8384       3.0576       2.4125       0.5513       0.4077       5.4908       2.1747     -94.6250    4353.0000
 1338.6816       9.8750      10.4193       0.0195     153.0000     100.0812       3.1014       2.3965       0.5071       0.4306       5.9315       2.1890     -94.3125    4449.0000
 1338.5292       9.8750      10.3688       0.0228     157.2000     101.0980       2.7996       2.1403       0.5517       0.4448       6.7046       2.2052     -94.1875    4463.0000
 1338.3768       9.8750       9.9811       0.0353     160.5000     104.5373       2.4256       1.8716       0.5118       0.4590       7.4288       2.2096     -94.0625    4359.0000
 1338.2244       9.8750       9.9818       0.0450     165.8000     107.0229       2.0174       1.5791       0.5992       0.4299       7.4523       2.1576     -93.9375    4366.0000
 1338.0720       9.8750       9.9471       0.0386     171.9000     106.1332       1.7004       1.3620       0.4951       0.4310       6.6526       2.0876     -93.8125    4424.0000
 1337.9196       9.8750       9.8898       0.0128     172.2000     107.7965       1.5383       1.2526       0.4330       0.4037       5.8349       2.0009     -93.6875    4417.0000
 1337.7672       9.8750       9.8855       0.0179     172.9000     109.4912       1.4658       1.2030       0.5848       0.4093       4.7926       2.0052     -93.8125    4417.0000
