~VERSION INFORMATION
VERS.           2.0   :CWLS Log ASCII Standard - VERSION 2.0
WRAP.           NO    :One Line per depth step
PROD.  Schlumberger   :LAS Producer
PROG.  DLIS to ASCII 11C0-305                          :LAS Program name and version
CREA.        2004/09/30 14:49                          :LAS Creation date {YYYY/MM/DD hh:mm}
SOURCE.     DLL_SONIC_LDL_CNL_035PUP.DLIS              :DLIS File Name
FILE-ID.     DLL_SONIC_LDL_CNL_035PUP                  :File Identification Number
#--------------------------------------------------
~WELL INFORMATION
#MNEM.UNIT      DATA             DESCRIPTION
#---- ------ --------------   -----------------------------
STRT .M      1817.6748       :START DEPTH     
STOP .M        25.7556       :STOP DEPTH     
STEP .M        -0.1524       :STEP     
NULL .          -999.25      :NULL VALUE
COMP .        GNPOC                                    :COMPANY
WELL .        Haraz-2                                  :WELL
FLD  .        Block 4                                  :FIELD
LOC  .                                                 :LOCATION
CNTY .        Roll'n 15                                :COUNTY
STAT .        Sudan                                    :STATE
CTRY .        Sudan                                    :COUNTRY
API  .                                                 :API NUMBER
UWI  .                                                 :UNIQUE WELL ID
DATE .        29-Sep-2004                              :LOG DATE {DD-MMM-YYYY}
SRVC .        Schlumberger                             :SERVICE COMPANY
LATI .DEG     10 31' 53.73" N                          :LATITUDE
LONG .DEG     28 05' 10.61" E                          :LONGITUDE
GDAT .                                                 :GeoDetic Datum
RMS  .OHM.M   0.0723                                   :MUD RESISTIVITY @ 83.0 DEGF
RMFS .OHM.M   0.0512                                   :MUD FILTRATE RESISTIVITY @ 83.6 DEGF
RMCS .OHM.M   0.1592                                   :MUD CAKE RESISTIVIT @ 82.90 DEGF
BSAL .PPM     35500                                    :BORE HOLE SALINITY
MRT  .DEGF    168                                      :MAXIMUM RECORDED TEMPERATURE
HOLV .M3      54.73                                    :HOLE VOLUME
CEMV .M3      31.90                                    :CEMENT VOLUME
#-----------------------------------------------------------------------------
~PARAMETER INFORMATION
#MNEM.UNIT    VALUE                      DESCRIPTION
#---- -----   --------------------       ------------------------
RUN  .          1                        :RUN NUMBER
PDAT .        MSL                        :Permanent Datum
EPD  .M           0.000000               :Elevation of Permanent Datum above Mean Sea Level
EPD  .M           0.000000               :Elevation of tool zero above Mean Sea Level
LMF  .          KB                       :Logging Measured From (Name of Logging Elevation Reference)
APD  .M         422.820007               :Elevation of Depth Reference (LMF) above Permanent Datum
#-----------------------------------------------------------------------------
~CURVE INFORMATION
#MNEM.UNIT   API CODE                                  DESCRIPTION
#---- -----  --------                                  -----------------------
DEPT .M                                                :DEPTH (BOREHOLE) {F10.4}
BS   .IN                                               :Bit Size {F13.4}
CALI .IN                                               :Caliper {F13.4}
DRHO .G/C3                                             :Bulk Density Correction {F13.4}
DT   .US/F                                             :Delta-T {F13.4}
GR   .GAPI                                             :Gamma Ray {F13.4}
LLD  .OHMM                                             :DEEP RESISTIVITY {F13.4}
LLS  .OHMM                                             :SHALLOW RESISTIVITY {F13.4}
MSFL .OHMM                                             :MSFL RESISTIVITY {F13.4}
NPHI .V/V                                              :Thermal Neutron Porosity (Ratio Method) {F13.4}
PEF  .                                                 :Photoelectric Factor {F13.4}
RHOB .G/C3                                             :Bulk Density {F13.4}
SP   .MV                                               :SP Shifted {F13.4}
TENS .LBF                                              :Cable Tension {F13.4}
#-----------------------------------------------------------------------------
# 
#     DEPT        BS           CALI         DRHO         DT           GR           LLD          LLS          MSFL         NPHI         PEF          RHOB         SP           TENS
#
~A  
# ...
 1221.0288       9.8750      10.0698      -0.0001     109.1000      90.0715      11.3892       8.8190       0.8359       0.4017       2.3009       2.2817     -77.5000   32767.0000
 1220.8764       9.8750      10.0634       0.0011     100.9000      96.5714      10.6677       8.2944       1.0857       0.4037       2.3085       2.2937     -77.0625   32767.0000
 1220.7240       9.8750      10.0679      -0.0003     102.5000     101.4555       9.9842       7.8474       1.6418       0.4041       2.5245       2.3023     -76.5000   32767.0000
 1220.5716       9.8750      10.0775      -0.0028     104.6000     108.3059       8.7842       7.0556       1.0921       0.3802       3.2857       2.2994     -76.1250   32767.0000
 1220.4192       9.8750      10.1861      -0.0040     103.6000     109.2306       7.8049       6.3637       0.9996       0.3680       4.6423       2.2768     -75.3750   32767.0000
 1220.2668       9.8750      10.2838      -0.0047     106.1000     113.2978       7.3946       6.0863       1.3477       0.3642       4.9952       2.2566     -75.4375   32767.0000
 1220.1144       9.8750      10.3676      -0.0037     107.6000     112.0964       6.7475       5.6013       1.4595       0.3962       3.7023       2.2506     -74.8125   32767.0000
 1219.9620       9.8750      10.4038      -0.0013     107.5000     119.4546       5.9107       5.0153       1.8188       0.3909       3.0289       2.2549     -73.7500   32767.0000
 1219.8096       9.8750      10.4289      -0.0002     109.5000     123.0699       5.0411       4.3801       1.9355       0.3776       3.1930       2.2650     -72.5000   32767.0000
 1219.6572       9.8750      10.4843      -0.0029     110.1000     124.6516       4.3539       3.8194       2.1773       0.3870       3.6354       2.2685     -71.6875   32767.0000
 1219.5048       9.8750      10.4829       0.0008     112.4000     126.5554       3.9017       3.4565       2.6079       0.4017       4.1518       2.2836     -70.6875   32767.0000
 1219.3524       9.8750      10.4193      -0.0019     114.4000     122.9562       3.6373       3.2729       2.6262       0.3984       4.0769       2.2822     -70.0000   32767.0000
 1219.2000       9.8750      10.3359      -0.0033     115.3000     121.4714       3.5681       3.2398       2.6358       0.3652       3.5522       2.2778     -69.5000   32767.0000
 1219.0476       9.8750      10.3364       0.0013     116.1000     118.9848       3.6880       3.3599       2.6406       0.3878       2.9985       2.2766     -68.1250   32767.0000
 1218.8952       9.8750      10.3384       0.0239     112.4000     118.7266       3.7188       3.3607       2.5297       0.4322       2.5907       2.2767     -67.5625   32767.0000
 1218.7428       9.8750      10.6777       0.0388     114.4000     120.9063       3.7685       3.3778       2.5140       0.4558       2.5326       2.2777     -67.2500   32767.0000
 1218.5904       9.8750      11.2052       0.0692     114.9000     118.1937       3.7913       3.3901       1.8298       0.5009       2.8097       2.2662     -66.5000   32767.0000
 1218.4380       9.8750      10.9107       0.1059     114.8000     119.6785       3.7348       3.3114       0.7079       0.5417       3.0456       2.2796     -65.5000   32767.0000
 1218.2856       9.8750      11.2403       0.1072     115.8000     114.9970       3.9463       3.4634       1.0647       0.5474       3.4797       2.2428     -64.9375   32767.0000
 1218.1332       9.8750      10.9608       0.0800     113.1000     113.7537       4.3858       3.8372       0.5443       0.4682       3.5759       2.2226     -64.3750   32767.0000
 1217.9808       9.8750      10.7488       0.0650     111.4000     111.7359       4.7945       4.1528       0.6033       0.4100       3.5600       2.2422     -63.1250   32767.0000
 1217.8284       9.8750      10.3990       0.0434     108.0000     116.4174       5.3106       4.5444       0.8068       0.4086       3.3752       2.2819     -62.3125   32767.0000
 1217.6760       9.8750      10.3185       0.0112     104.3000     116.5887       5.5709       4.7317       2.1675       0.4442       3.1132       2.2917     -61.8125   32767.0000
 1217.5236       9.8750      10.3326       0.0033     104.1000     118.5675       5.5937       4.7123       2.0507       0.4217       3.1245       2.3021     -60.5625   32767.0000
 1217.3712       9.8750      10.4049      -0.0016     104.6000     117.4207       5.6492       4.7647       2.3086       0.4182       3.0484       2.3046     -59.8125   32767.0000
 1217.2188       9.8750      10.4458      -0.0019     104.7000     124.4644       5.8304       4.8553       1.9144       0.3954       3.0364       2.3105     -59.1875   32767.0000
 1217.0664       9.8750      10.4002      -0.0061     104.7000     131.6407       6.0670       4.9942       1.8011       0.4394       2.8351       2.3004     -58.3750   32767.0000
 1216.9140       9.8750      10.4149      -0.0093     104.8000     142.3527       6.3395       5.1605       1.8060       0.4382       2.7263       2.2868     -56.7500   32767.0000
 1216.7616       9.8750      10.4386      -0.0078     104.7000     147.2525       6.5794       5.3078       1.7523       0.4527       2.7608       2.2814     -56.0000   32767.0000
 1216.6092       9.8750      10.4347      -0.0049     104.4000     155.0054       6.7885       5.4390       1.7225       0.4430       2.8879       2.2832     -55.5625   32767.0000
 1216.4568       9.8750      10.4097      -0.0001     103.8000     164.4287       6.8947       5.4839       1.7822       0.4539       2.9134       2.2893     -53.6875   32767.0000
 1216.3044       9.8750      10.3690       0.0051     103.8000     177.8580       7.0151       5.5265       1.9844       0.4647       2.8666       2.2983     -51.9375   32767.0000
 1216.1520       9.8750      10.3318       0.0110     103.8000     187.3712       7.1717       5.6447       1.8408       0.4574       2.8716       2.3141     -50.9375   32767.0000
 1215.9996       9.8750      10.2731       0.0104     103.4000     195.1418       7.3515       5.7868       1.7242       0.4427       2.9674       2.3167     -49.1250   32767.0000
 1215.8472       9.8750      10.2484       0.0077     103.1000     187.1396       7.6070       5.9448       1.6911       0.4220       2.9846       2.3188     -47.5000   32767.0000
 1215.6948       9.8750      10.2298       0.0045     102.9000     180.1326       8.0042       6.2625       1.8318       0.4164       2.9706       2.3046     -45.5625   32767.0000
 1215.5424       9.8750      10.2144      -0.0002     102.6000     161.2650       8.2773       6.4657       1.8465       0.3995       2.7485       2.3051     -43.8750   32767.0000
 1215.3900       9.8750      10.2131      -0.0025     103.2000     153.5844       8.4220       6.5478       1.7605       0.4212       2.6690       2.2996     -43.0625   32767.0000
 1215.2376       9.8750      10.1977      -0.0025     103.2000     140.0475       8.5525       6.6410       1.7870       0.4376       2.4762       2.2958     -41.6875   32767.0000
 1215.0852       9.8750      10.1842       0.0005     103.1000     134.2855       8.7710       6.7504       1.8019       0.4548       2.4978       2.2916     -40.1875   32767.0000
 1214.9328       9.8750      10.1855       0.0010     102.6000     126.2328       8.8249       6.7412       1.9103       0.4339       2.5579       2.2883     -39.8125   32767.0000
 1214.7804       9.8750      10.2723       0.0086     102.4000     132.8616       8.9216       6.7237       1.7875       0.4262       2.6442       2.3084     -38.1875   32767.0000
 1214.6280       9.8750      10.3037       0.0071     102.2000     144.1144       9.0776       6.7675       1.6863       0.4331       2.7149       2.3157     -37.5625   32767.0000
 1214.4756       9.8750      10.3064       0.0107     102.4000     165.9028       9.1837       6.7686       1.5437       0.4158       2.6130       2.3297     -36.5625   32767.0000
 1214.3232       9.8750      10.3127       0.0106     102.6000     169.3560       9.4400       6.8001       1.6424       0.4185       2.5731       2.3312     -34.4375   32767.0000
